lat,lon,amenity,name
49.260812,-123.125736,cafe,Starbucks
49.1935797,-123.1807883,cafe,Tim Hortons
49.2284004,-122.8483834,cafe,Tim Hortons
49.212449,-122.9197493,cafe,Tim Hortons
49.212659,-122.9193469,cafe,Starbucks
49.2635825,-123.1288364,cafe,Waves
49.0919518,-122.9576502,cafe,Tim Hortons
49.2685718,-123.1045263,cafe,Argo Cafe
49.278119,-122.9122848,cafe,Starbucks
49.2821554,-123.0998393,cafe,Waves Coffee
49.2831728,-123.0935162,cafe,The Uncommon Cafe
49.2731066,-123.1007271,cafe,Tim Hortons
49.2769081,-122.8589634,cafe,Starbucks
49.2866006,-123.1282087,cafe,Chatime
49.2864194,-123.1272344,cafe,Abode
49.2660115,-123.2423353,cafe,Only U Cafe
49.2814778,-123.1336029,cafe,Exile
49.0408954,-122.2698339,cafe,Starbucks
49.2873431,-123.1143935,cafe,Starbucks
49.2387806,-123.0316319,cafe,Tim Hortons
49.2641324,-123.1816701,cafe,Essentia Cafe
49.2686141,-123.158778,cafe,Starbucks
49.285902899999996,-123.1249177,cafe,Tim Hortons
49.2876133,-123.1149238,cafe,Starbucks
49.2630977,-123.1172998,cafe,Elysian Coffee Roasters
49.212995,-123.1401,cafe,Starbucks
49.3721579,-123.0988075,cafe,Starbucks
49.1797273,-123.137991,cafe,Paul's Kitchen
49.1048167,-122.8022148,cafe,Starbucks
49.1767616,-122.689973,cafe,Tim Hortons
49.2492264,-123.1007752,cafe,Caffe Artigiano
49.2796195,-123.0999337,cafe,Starbucks
49.2327522,-123.1172852,cafe,Blenz
49.2792232,-123.1168269,cafe,Gong Cha
49.0497717,-122.3189143,cafe,Sticky Buns & More
49.197754,-123.1407889,cafe,Caffè Artigiano
49.2543347,-122.737988,cafe,Starbucks
49.257451,-122.7437942,cafe,Tim Hortons
49.2290279,-122.9989508,cafe,Mr. Mustache Tea & Dessert
49.2808856,-123.011264,cafe,Waves Coffee
49.1328835,-122.846132,cafe,Tim Hortons
49.0513372,-122.691921,cafe,Tim Hortons
49.125282,-123.1847472,cafe,Steveston's Coffee Co.
49.2635191,-123.1231332,cafe,Tim Hortons
49.2632049,-123.1070497,cafe,Starbucks
49.2673455,-123.112992,cafe,Starbucks
49.235221,-123.1157169,cafe,Starbucks
49.2273356,-122.9997733,cafe,McCafé
49.2260832,-123.001846,cafe,Blenz Coffee
49.2315873,-123.009736,cafe,Waves
49.2186088,-122.9564849,cafe,Starbucks
49.2285933,-122.9995392,cafe,Sulmida
49.2256778,-122.9973902,cafe,Starbucks
49.2263089,-122.9999809,cafe,Take Five Café
49.2254283,-122.9974687,cafe,Tim Hortons
49.2284012,-123.0046672,cafe,Sunshine
49.2285595,-123.0045242,cafe,Comebuy
49.2505112,-122.8949216,cafe,Grainery
49.2278206,-122.840058,cafe,Starbucks
49.2510633,-122.8951452,cafe,Anna's
49.2504908,-122.8944559,cafe,Starbucks
49.2507164,-122.8956836,cafe,Cinnzeo
49.2808098,-123.1070156,cafe,Caveman Cafe
49.1953219,-123.1781022,cafe,Galiano Bakery & Cafe
49.2865567,-123.1410036,cafe,Tim Hortons
49.1128069,-122.6724406,cafe,Starbucks
49.2829831,-123.1098733,cafe,New Amsterdam Cafe
49.2624382,-123.1007191,cafe,Bean Around The World
49.2624451,-123.1012839,cafe,Kafka's Coffee and Tea
49.2622376,-123.1012945,cafe,Sunny Spot
49.1047469,-122.7990471,cafe,Tim Hortons
49.0448257,-122.778652,cafe,Starbucks
49.1325243,-123.0924899,cafe,Starbucks
49.2656284,-123.2543584,cafe,Tim Hortons
49.2673017,-123.2526955,cafe,Ike's Café
49.0904049,-123.0780785,cafe,Starbucks
49.1722688,-123.1361069,cafe,Starbucks
49.1712706,-123.1358928,cafe,Blenz Coffee
49.1705244,-123.1569694,cafe,Golden Coin
49.2347512,-123.1582643,cafe,Tim Hortons
49.2729377,-123.0997917,cafe,Starbucks
49.26437,-123.1674354,cafe,Starbucks
49.283684,-123.1159815,cafe,Caffe Artigiano
49.2848065,-123.1143227,cafe,Trees Coffee
49.2847372,-123.1144476,cafe,Creme de la Crumb
49.0323555,-122.8669141,cafe,Starbucks - Ocean Park
49.0334416,-122.8008794,cafe,Starbucks - Whiterock
49.0246535,-122.8013247,cafe,Islands Café
49.0953173,-122.6241169,cafe,Tim Hortons
49.1623763,-122.6603266,cafe,Tim Hortons
49.1196856,-122.6912218,cafe,Tim Hortons
49.1247605,-122.7048284,cafe,Tim Hortons
49.1636149,-122.8780219,cafe,Tim Hortons
49.150248500000004,-122.8899397,cafe,Tim Hortons
49.2506688,-122.8967172,cafe,Tim Hortons
49.324043,-123.1099144,cafe,Starbucks
49.3232543,-123.1137594,cafe,Tim Hortons
49.3107221,-123.0812615,cafe,Bean Around The World
49.2814148,-123.1194673,cafe,Café Crêpe
49.2881125,-123.1146371,cafe,
49.2314876,-123.0052432,cafe,Ha Cafe
49.1861239,-122.8479282,cafe,Blenz
49.1864343,-122.8488672,cafe,Starbucks
49.1896522,-122.8033776,cafe,Starbucks
49.0390323,-122.3107782,cafe,Fireside Café
49.2733114,-123.008943,cafe,Enzo's Café
49.2760414,-123.1196355,cafe,Chasers
49.2756829,-123.120168,cafe,Lime & Moon Pie Company
49.2764101,-123.1190813,cafe,Coffee House
49.1780512,-123.121115,cafe,T-Go Tea
49.1776145,-123.1211398,cafe,Starbucks
49.1693511,-123.136217,cafe,Gong Cha
49.187642,-123.1299106,cafe,Janice Cake Shop
49.2861774,-123.1269715,cafe,Blenz
49.2638449,-123.1000453,cafe,Pleasant Beans Coffee House
49.2821626,-123.1045058,cafe,Nelson the Seagull
49.2870382,-123.1181012,cafe,Blenz Coffee
49.2173905,-122.5917912,cafe,Starbucks
49.26174,-122.8908435,cafe,Cafe & Roastery
49.2998929,-123.1312145,cafe,Ocean Wise Cafe
49.2476624,-122.8910643,cafe,Sharetea
49.1784657,-123.1307836,cafe,Leisure Tea & Coffee
49.2255047,-123.1013836,cafe,Roots Café
49.290443,-123.1176585,cafe,The Cockpit
49.3228237,-123.1079762,cafe,Bean Around The World Coffees
49.321936,-123.107702,cafe,Corner Cafe
49.1953403,-123.1828912,cafe,Starbucks
49.2638304,-122.766795,cafe,Starbucks
49.2801002,-122.7997098,cafe,Starbucks
49.2788724,-122.7975011,cafe,Tim Hortons
49.233308,-123.0338835,cafe,Milk & Sugar Cafe
49.2380309,-123.0322916,cafe,Sunflower Bubble Tea
49.2909208,-123.1365182,cafe,Milano Coffee Roasters
49.2913209,-123.135935,cafe,Breka Bakery & Cafe
49.2902367,-123.1375735,cafe,Blenz Coffee
49.2904186,-123.1372778,cafe,Hui Lau Shan
49.2246333,-122.9883605,cafe,Chatime
49.3740676,-123.2747859,cafe,Seaside Village
49.2846042,-123.1245931,cafe,Starbucks
49.0481537,-122.2901397,cafe,Boardwalk Cafe & Games
49.2287016,-123.0013644,cafe,Starbucks
49.2687642,-123.183797,cafe,Aphrodite's Organic Cafe
49.268464,-123.1854523,cafe,Blenz Coffee
49.1399028,-122.3070902,cafe,GrabaJava
49.0520506,-122.3122287,cafe,Beans & Leaves
49.2789586,-123.1212246,cafe,Starbucks
49.2783848,-123.1220442,cafe,Nero Belgian Waffle Bar
49.0575438,-122.273748,cafe,Cafe Amarti
49.2784178,-123.1182179,cafe,Homer St Cafe and Bar
49.1868558,-123.1067341,cafe,Creme de la Crumb
49.0476651,-122.2683053,cafe,City Blends Coffee
49.282764,-123.1102832,cafe,Nemesis
49.0818284,-122.260809,cafe,Clayburn Village Store & Gift Shop
49.290792,-123.1362563,cafe,True Confections
49.1039925,-122.7997385,cafe,Be' wiched
49.1920236,-122.8344326,cafe,Taste of Pho
49.3331944,-123.0899754,cafe,
49.184894,-122.798952,cafe,BA LE Deli & sandwiches
49.1846395,-122.7988061,cafe,Little Tea House
49.2274236,-122.9999891,cafe,Tim Hortons
49.2260687,-123.0020678,cafe,Starbucks
49.2747084,-123.0692817,cafe,Moja Coffee
49.1020894,-122.6457196,cafe,Starbucks
49.1625535,-122.6359271,cafe,Starbucks
49.2263571,-123.0905461,cafe,Baker & Table
49.2266652,-123.0049363,cafe,Tim Hortons
49.2262624,-123.0039692,cafe,Starbucks
49.2375315,-123.0650461,cafe,El Caracol Mexican Cafe
49.2251239,-123.0535019,cafe,Starbucks
49.2882295,-123.1233339,cafe,Waves Coffee House
49.2040556,-123.134982,cafe,Wick's Cafe
49.2799372,-123.1073562,cafe,Starbucks
49.0771707,-122.9370866,cafe,Mary's Place
49.2273082,-122.9952428,cafe,Starbucks
49.222974,-122.9140218,cafe,Starbucks
49.1696991,-122.5790209,cafe,Republica Coffee Roasters
49.1999678,-122.9802018,cafe,Tim Hortons
49.1987317,-122.9768452,cafe,Starbucks
49.2746801,-123.0698694,cafe,Sweet Cherubim
49.2501178,-122.7564129,cafe,Suzette's Cafe
49.049635,-122.2901153,cafe,Ivana Tea House
49.2080545,-122.9308406,cafe,Young's
49.25002,-123.0763241,cafe,Pallet Coffee Roasters
49.2353139,-123.0381182,cafe,Metro Cafe Bar
49.2571435,-123.1202522,cafe,Tandem Bike Cafe
49.0889611,-122.5995001,cafe,Tim Hortons
49.1547993,-123.1581393,cafe,Starbucks
49.3070111,-123.0174317,cafe,Belmont Cafe
49.1047128,-122.6558244,cafe,Frosting Cupcakery & Bake Shop
49.2209269,-122.5999694,cafe,Blenz Coffee
49.2170824,-122.6017268,cafe,Tim Hortons
49.2206129,-122.6062531,cafe,Gratia Bakery & Cafe
49.2207153,-122.5854669,cafe,Tim Hortons
49.2205735,-122.5573529,cafe,Starbucks
49.1071104,-122.665652,cafe,Lemon Bakery
49.2802382,-123.1232584,cafe,Railtown Cafe
49.0605339,-122.7362321,cafe,Tim Hortons
49.0459554,-122.7971911,cafe,Healthy Monkey Cafe
49.2093679,-123.1165285,cafe,Starbucks
49.2670223,-123.1451203,cafe,Elysian Coffee Roasters
49.1240103,-123.1808928,cafe,Starbucks
49.2839076,-122.7934359,cafe,Caffe Divano
49.2859301,-123.1182815,cafe,Blenz Coffee
49.2873653,-123.1287891,cafe,Bubble World Tea House
49.2474538,-123.0900006,cafe,Prado Cafe
49.246691,-123.0903554,cafe,JJ Bean Coffee Roasters
49.2882578,-123.1405916,cafe,Delanys Coffee
49.2889364,-123.1395296,cafe,Cacao 70
49.2327351,-123.023744,cafe,iGame Arena
49.2320493,-123.0262792,cafe,Sugar Loop by Westcoast Darts Cafe
49.2321981,-123.0903909,cafe,Boba Monster
49.2322594,-123.0903936,cafe,Green Leaf Bubble Tea
49.2251518,-123.0904703,cafe,Starbucks
49.2505192,-123.0764488,cafe,Falafel Cafe
49.2542839,-123.0850295,cafe,BT Cafe
49.2572851,-123.0901365,cafe,Matchstick Coffee Roasters
49.1583055,-122.7806064,cafe,Starbucks
49.036598,-122.2939306,cafe,Tim Hortons
49.2105091,-123.1069,cafe,Starbucks
49.3365781,-123.0380044,cafe,Waves Coffee
49.2811646,-123.0007477,cafe,ZenQ
49.2808737,-123.0010698,cafe,Caffe Divano
49.2805588,-123.1169062,cafe,Cafe Medina
49.2809406,-123.1269099,cafe,Beyond Coffee
49.2625624,-123.0695251,cafe,Blenz Coffee
49.2800297,-123.1086595,cafe,Brothers
49.2805834,-123.1028286,cafe,Musette Caffè
49.2820489,-123.118486,cafe,Starbucks
49.2827779,-123.1116632,cafe,Finch's
49.1695461,-122.5767148,cafe,Blacksmith Bakery
49.2725841,-123.1479944,cafe,Juliet's Cafe
49.2725841,-123.1486132,cafe,Panne Rizo
49.2725892,-123.1488841,cafe,Bean Around the World
49.2733132,-123.11993,cafe,Starbucks
49.290842,-123.1342117,cafe,YiFang Taiwan Fruit Tea
49.2032393,-122.9081366,cafe,Starbucks
49.2354571,-123.1560864,cafe,Secret Garden Tea Company
49.2379505,-123.1556108,cafe,Comebuy Bubble Tea
49.2344956,-123.1573182,cafe,Caffè Artigiano
49.2344715,-123.1593632,cafe,Legato Cafe
49.2350698,-123.1615131,cafe,One Bowl
49.2344778,-123.1605904,cafe,Starbucks
49.2633833,-123.1866515,cafe,NOURISH
49.2639234,-123.2061777,cafe,Tim Hortons
49.2636669,-123.2051855,cafe,Figaro Café + Bakery
49.2636844,-123.2081906,cafe,Darcy's Cafe
49.2643129,-123.0114062,cafe,812 Cake & Deesert
49.3069368,-122.9533963,cafe,Starbucks
49.2887562,-123.1150926,cafe,Bellaggio Café & Gelateria
49.1263924,-122.3836176,cafe,The Apothecary
49.1674245,-122.5720493,cafe,lelem at the Fort
49.1987198,-122.8511017,cafe,Waves Coffee
49.1990317,-122.8129574,cafe,A1 Coffee & Donuts
49.2885009,-123.1391648,cafe,3 Quarters Full Cafe
49.2234467,-122.9867609,cafe,T's Home
49.223448,-122.9869663,cafe,The Mill Cafe
49.0481897,-122.7832772,cafe,Starbucks
49.2209708,-122.9884826,cafe,Ki Tea House Cafe
49.2469558,-122.8920874,cafe,Coffeeholic
49.170241,-122.5781433,cafe,Wendel's Bookstore & Cafe
49.1693196,-122.5787749,cafe,50's Cafe
49.1992381,-122.9792371,cafe,Starbucks
49.1240007,-123.1843051,cafe,Timothy's Frozen Yogurt
49.2850193,-123.1145937,cafe,Quantum Coffee
49.2787028,-123.1302045,cafe,Maple Leaf Delicatessen Coffe Shop
49.0306475,-122.2927211,cafe,City Blends Coffee
49.2916513,-123.1354557,cafe,Starbucks
49.2640168,-123.1733645,cafe,Neverland Tea Salon
49.2632564,-123.1276427,cafe,Barista Cafe
49.2317166,-123.0904136,cafe,L & G Bubble Tea
49.0658455,-122.3268736,cafe,Pioneer Corner
49.2817816,-123.1117459,cafe,Java Cat
49.2777827,-123.1268532,cafe,Truffles
49.2838195,-123.1118877,cafe,Waves Coffee
49.2846244,-123.1218388,cafe,Starbucks
49.1880051,-122.8492686,cafe,Blenz Coffee
49.2833178,-123.1191002,cafe,Cafe Bel
49.2262196,-123.0018742,cafe,Chattime
49.0365002,-122.2912574,cafe,Starbucks
49.2690014,-123.0445183,cafe,My Frosty
49.2634545,-123.1407716,cafe,Trees Organic
49.2636205,-123.1502883,cafe,Blenz Coffee
49.2641802,-123.1574706,cafe,Hearts & Vine Cafe
49.2642829,-123.1860874,cafe,Good Earth Coffeehouse
49.2652176,-123.2507822,cafe,Starbucks
49.2659738,-123.2500204,cafe,Loafe
49.2659992,-123.2463424,cafe,The Boulevard Coffee Roasting Co.
49.2678638,-123.1573505,cafe,Kokomo
49.2637652,-123.1573383,cafe,IGA Bistro
49.2847804,-123.1227707,cafe,Thierry
49.3338382,-123.0384328,cafe,Tim Hortons
49.197642,-123.1745765,cafe,Tim Hortons
49.1551351,-123.1243923,cafe,Blenz Coffee
49.1541422,-123.1240463,cafe,Chatime
49.1541583,-123.1242837,cafe,Kidz Etc.
49.2274296,-123.1168286,cafe,Chatime
49.2893869,-123.1388596,cafe,Tim Hortons
49.3100831,-123.0831859,cafe,Starbucks
49.3100709,-123.0829744,cafe,The Coffee Bun
49.2817211,-123.1165551,cafe,Nosherie
49.239521,-123.1286511,cafe,Truffles Café
49.1056159,-122.7388746,cafe,Starbucks
49.1044584,-122.7252382,cafe,Starbucks
49.1038253,-122.726644,cafe,Tim Hortons
49.2550997,-123.1153648,cafe,JJ Bean
49.1921059,-122.8240975,cafe,Four Seasons
49.1916724,-122.8236591,cafe,Jazen Tea
49.1919983,-122.8241091,cafe,Tasty Sandwiches & Desserts
49.2818025,-123.1074624,cafe,Vegan Cave
49.2819026,-123.1075035,cafe,Nectar
49.2818951,-123.1074453,cafe,Prado
49.2862256,-123.1161579,cafe,Edel Express
49.2835903,-123.111511,cafe,Bonchaz
49.2856543,-123.1147275,cafe,Caffè Artigiano
49.2845132,-123.114372,cafe,CoCo Fresh Tea & Juice
49.2825674,-123.1113699,cafe,Social Crust
49.2835821,-123.1129034,cafe,Moii Cafe
49.0450086,-122.348571,cafe,Francisco'S Café & Catering
49.0543391,-122.3584222,cafe,SippChai Cafe
49.2693966,-123.1029581,cafe,Starbucks
49.2619429,-123.103196,cafe,The Federal Store
49.2199073,-122.9285179,cafe,Pie Hole & Coffee
49.2796325,-123.1078508,cafe,Blenz
49.1242112,-123.182955,cafe,Waves Coffee House
49.2846897,-123.0652949,cafe,JJ Bean
49.3254284,-123.1367676,cafe,Starbucks
49.2777456,-123.0980833,cafe,Harvest Community Foods
49.2714358,-123.1068353,cafe,Terra Breads
49.2817332,-123.0638566,cafe,Pallet Coffee Roasters
49.281298,-123.0574622,cafe,platform 7 Coffee
49.2850466,-123.0954451,cafe,Railtown Café
49.2828397,-123.089684,cafe,Ed’s Daily
49.2860889,-123.1163367,cafe,Tim Hortons
49.2768852,-123.0754328,cafe,Take Five
49.2832205,-123.1155257,cafe,Tim Hortons
49.2829884,-123.1156531,cafe,Starbucks
49.111784,-122.6767069,cafe,Tim Hortons
49.2697898,-123.2587258,cafe,Cafe MOA
49.2637188,-123.1087031,cafe,Milano Cafe
49.2207628,-122.5948477,cafe,Starbucks
49.2656312,-123.1150585,cafe,Porto Café
49.1937586,-123.1228348,cafe,Boson Coffee
49.2485436,-123.1266354,cafe,Starbucks
49.2795168,-122.828018,cafe,Starbucks
49.2681226,-123.1656481,cafe,The Only Cafe
49.2792208,-122.828577,cafe,JJ Bean
49.2814941,-123.0984116,cafe,Ovaltine Cafe
49.3278312,-123.0724238,cafe,Bubble Tea House
49.2865106,-123.1258963,cafe,JJ Bean
49.285665,-123.1272801,cafe,Breka Bakery & Café
49.2868188,-123.1285213,cafe,Cafe Rico
49.2870412,-123.1283167,cafe,Tim Hortons
49.0579402,-122.8018068,cafe,Starbucks
49.282101,-123.1045134,cafe,East Van Roasters
49.2512791,-123.0006723,cafe,The Rix
49.2496554,-123.0013413,cafe,
49.2885656,-123.1177149,cafe,Starbucks
49.2810287,-123.118654,cafe,Blenz Coffee
49.0314788,-122.8008488,cafe,Leaf Tea Lounge
49.238699,-123.0509163,cafe,Xing Fu Tang
49.2593387,-123.0445903,cafe,Tim Hortons
49.2684823,-123.1867573,cafe,Breka Bakery & Café
49.2682531,-123.1677783,cafe,Nusa Coffee
49.2464996,-123.1854116,cafe,Starbucks
49.2700562,-123.1030385,cafe,Amato Gelato & Cafè
49.187643,-123.1303973,cafe,YiFang Taiwan Fruit Tea
49.2796237,-122.9210213,cafe,Starbucks
49.2799293,-122.9212052,cafe,Tim Hortons
49.2345507,-123.0362568,cafe,COCO Fresh Tea & Juice
49.0583589,-122.4601985,cafe,Aldergrove Cafe
49.0601698,-122.4932153,cafe,Tim Hortons
49.2786375,-123.115902,cafe,Jenjudan
49.1989622,-122.7772807,cafe,Tim Hortons
49.2829888,-123.0959146,cafe,HAVE cafe
49.2497907,-123.1151843,cafe,YiFang Taiwan Fruit Tea
49.2329446,-123.0653099,cafe,Tim Hortons
49.286296899999996,-123.1277327,cafe,Meet Fresh Robson
49.276166,-123.1157038,cafe,7Days Coffee
49.0410938,-122.2201486,cafe,Starbucks
49.0369791,-122.2305025,cafe,CLiK Coffee
49.2850423,-123.1205667,cafe,Starbucks
49.277133,-123.1296758,cafe,Starbucks
49.3148745,-123.1005629,cafe,Thomas Haas Patisserie
49.2853887,-123.1229586,cafe,Urban Tea Merchant
49.2820786,-123.1340707,cafe,Ho Ho's Yummy Food
49.282131,-123.1341558,cafe,Sumac Cafe
49.2822483,-123.1343416,cafe,Melriches Coffee House
49.2817505,-123.1335605,cafe,Mary's on Davie
49.2819635,-123.1333845,cafe,Blenz Coffee
49.3256789,-123.1353529,cafe,Starbucks
49.0828583,-122.2187961,cafe,Auguston Station CoffeeWorks
49.2627235,-123.1001878,cafe,Starbucks
49.2638682,-123.1006882,cafe,Gene
49.2568815,-123.1009868,cafe,Caffè Mira
49.2773052,-123.0869116,cafe,Union Market
49.1257333,-123.1828199,cafe,Village Books & Coffee House
49.3122306,-123.0785782,cafe,Sweet Art Bakery
49.3118329,-123.0789938,cafe,Waves Coffee
49.1338527,-122.6674407,cafe,Tim Hortons
49.2544897,-123.2350501,cafe,Jugo Juice
49.2680641,-123.1567004,cafe,Starbucks
49.2693988,-123.1459745,cafe,WEEDS
49.2680344,-123.1548186,cafe,49th Parallel & Lucky's Doughnuts Cafe
49.2682808,-123.1540137,cafe,Jam Café
49.2679451,-123.1494499,cafe,Jitters Cafe
49.2682195,-123.1508793,cafe,Crêpe Café
49.0356029,-122.2910222,cafe,Sprouted Oven by Silver Hills Bakery
49.2777096,-123.1309686,cafe,Number e Food
49.1918172,-123.168934,cafe,Tim Hortons
49.2812059,-123.104529,cafe,Iktsuarpok Coffee Stand
49.2680316,-123.1115966,cafe,Sweetery Cafe+Dessert
49.1040175,-122.6539858,cafe,Mc Burney Coffee & Tea House
49.0899262,-123.0447984,cafe,Tim Hortons
49.2194146,-123.1182638,cafe,Dylan's
49.2683908,-123.043984,cafe,Ding Tea
49.1888177,-122.802152,cafe,Starbucks
49.1887678,-122.8025894,cafe,Tim Hortons
49.3150944,-123.066758,cafe,Andrews on 8th
49.274665,-123.122111,cafe,Starbucks
49.2776617,-122.8577503,cafe,Gallery Cafe
49.2803078,-123.1096811,cafe,Jam Cafe
49.0587485,-122.3800043,cafe,Starbucks
49.2789851,-123.1164249,cafe,Le Petit Belge
49.2845775,-123.1093205,cafe,Trees Organic Coffee
49.2825011,-123.1092466,cafe,Bean Around The World
49.2848332,-123.1209459,cafe,Tim Hortons
49.2620273,-123.0700397,cafe,Starbucks
49.2649351,-123.0694975,cafe,JJ Bean
49.2689086,-123.0698532,cafe,Cafe Calabria
49.2688079,-123.069416,cafe,Starbucks
49.2685474,-123.0694037,cafe,Continental Coffee
49.2875394,-123.1200147,cafe,Starbucks
49.2694342,-123.0694395,cafe,Dive In Dessert Cafe
49.2388325,-123.0650972,cafe,Hoi An Cafe
49.204059,-123.1342853,cafe,Oriole Cafe
49.270909,-123.147638,cafe,Pane From Heaven
49.2063346,-123.1235828,cafe,Marpole Curling Club Cafe
49.2721862,-122.7899314,cafe,Waves
49.2592978,-123.0704729,cafe,Circus Play Cafe
49.2011009,-122.9128362,cafe,Starbucks
49.2252259,-123.0038545,cafe,Estea Cafe
49.2836676,-123.1236177,cafe,Café Crêpe Express
49.2619003,-123.1383698,cafe,Starbucks
49.2805086,-123.0999462,cafe,Waves
49.2878625,-123.1239772,cafe,Starbucks
49.2429006,-123.0608742,cafe,Gram Cafe
49.3010722,-123.1336126,cafe,Railway Cafe
49.3027539,-123.1312455,cafe,Lumberman's Arch Cafe
49.033597,-122.8014115,cafe,Tim Hortons
49.2469482,-122.749874,cafe,Tim Hortons
49.1955872,-123.1740688,cafe,Euro Cafe
49.260953,-123.2510588,cafe,Agora
49.2837737,-122.8279837,cafe,Starbucks
49.3266532,-122.9509799,cafe,Cove Creek Gallery and Cappuccino Bar
49.3269052,-122.9514941,cafe,Cafe Orso
49.3266818,-122.9496701,cafe,Cover Neighbourhood Cafe
49.2149439,-122.922782,cafe,Anny's
49.2347245,-123.157554,cafe,Starbucks
49.2345067,-123.1580907,cafe,Boba Boy
49.2346968,-123.1536668,cafe,Adonia
49.277825,-122.9143548,cafe,Renaissance
49.2794033,-122.9156154,cafe,Renaissance
49.2627882,-123.1012573,cafe,Tim Hortons
49.2447764,-123.1537897,cafe,Starbucks
49.2540672,-123.2351064,cafe,Blenz Coffee
49.2637878,-123.1861359,cafe,Grounds For Coffee
49.2633902,-123.115605,cafe,Blenz Coffee
49.2634442,-123.1196602,cafe,Blenz
49.2807258,-123.1185785,cafe,Buro
49.2690461,-123.1029151,cafe,Glory Juice
49.2658614,-123.2427948,cafe,Starbucks
49.1757603,-123.1425081,cafe,Tim Hortons
49.2822856,-123.1191044,cafe,Nordstrom E-Bar
49.2845541,-123.1181578,cafe,Caffe Express
49.2794404,-123.1230068,cafe,Blenz Coffee
49.2757856,-123.1211099,cafe,Blenz Coffee
49.3059042,-123.037141,cafe,Starbucks
49.2635247,-123.1239578,cafe,Halfday Flower and Tea
49.2185816,-122.9517276,cafe,Waves Coffee House
49.219026,-122.9666739,cafe,Tim Hortons
49.1178684,-123.1576282,cafe,Diplomat Bakery
49.0406965,-122.2203188,cafe,Tim Hortons
49.197483,-123.177973,cafe,Starbucks
49.198452,-123.179789,cafe,Euro Cafe
49.1971835,-123.1754826,cafe,Tim Hortons
49.1857234,-122.8000805,cafe,Tasters Bakery Coffee Bar
49.2840399,-123.1235612,cafe,Starbucks
49.190781,-122.8483312,cafe,Prado Cafe
49.2663694,-123.2468096,cafe,J J Bean
49.1891857,-122.8463132,cafe,Chatime
49.1821446,-122.8439927,cafe,Tim Hortons
49.1830591,-122.8446583,cafe,Starbucks
49.1625226,-122.8888312,cafe,Starbucks
49.2117388,-122.8624839,cafe,Tim Hortons
49.1915327,-122.8908779,cafe,Starbucks
49.2584514,-123.1147139,cafe,Passion8 Dessert Cafe
49.2599354,-123.114726,cafe,Sharetea
49.2658085,-123.1223088,cafe,Tim Hortons
49.262972,-123.1200598,cafe,K Cafe
49.2631541,-123.1194644,cafe,Starbucks
49.2629664,-123.0983339,cafe,B U N S + B O B A
49.2626539,-123.0922063,cafe,Paper Crane Coffee
49.264788,-123.1459071,cafe,Sakura Cafe
49.2636034,-123.1508309,cafe,Pallet Coffee Roasters
49.2015761,-122.912837,cafe,Tim Hortons
49.231652,-123.0313892,cafe,Gong Cha
49.1698659,-123.1367753,cafe,Happy Lemon
49.3787617,-123.3381558,cafe,Village Baker
49.3793956,-123.3382893,cafe,The Ruddy Cafe
49.1950338,-123.1772197,cafe,Starbucks
49.284463099999996,-123.1134341,cafe,Starbucks
49.2850471,-123.1120652,cafe,Tim Hortons
49.2874022,-123.1169095,cafe,JJ Bean
49.280456,-123.131581,cafe,Baguette cafe
49.287236,-123.141423,cafe,Starbucks
49.3230668,-123.1020029,cafe,Ethical Kitchen
49.2792354,-123.1227256,cafe,Tim Hortons
49.2656908,-123.0038687,cafe,Starbucks
49.2670568,-123.0062791,cafe,Cuppajoe Coffee Roasters
49.1547412,-123.1257835,cafe,Jane's Tea Garden
49.2705516,-123.146241,cafe,Kahve café
49.2841207,-123.1069471,cafe,Prado
49.0762012,-122.6689193,cafe,Starbucks
49.1102191,-122.668383,cafe,Estrella's Montreal Deli & Cafe
49.0961285,-122.5375554,cafe,JD Farms
49.103395,-122.4903841,cafe,Tim Hortons
49.1928452,-122.8890116,cafe,Tim Hortons
49.1776017,-122.6720141,cafe,Tim Hortons
49.2180636,-122.648318,cafe,Waves Coffee House
49.2321736,-123.0312269,cafe,Tim Hortons
49.0533134,-122.3382178,cafe,Rose Room Coffee Shop
49.2804909,-123.0990143,cafe,Propaganda Coffee
49.2457153,-123.094297,cafe,Le Marché St. George
49.269881,-123.144966,cafe,Café Terra
49.281246,-123.046993,cafe,Starbucks
49.2727738,-123.1475974,cafe,Starbucks
49.2832144,-123.1047785,cafe,Après-midi
49.2802555,-123.130747,cafe,Tartine Bread and Pies
49.3509569,-123.2543395,cafe,Starbucks
49.3341106,-123.1796949,cafe,Starbucks
49.3341886,-123.1800055,cafe,Delainy's
49.374745,-123.2736184,cafe,The Lookout Café
49.3724992,-123.2908589,cafe,Whytecliff Park Concession
49.3256455,-123.1406036,cafe,Starbucks
49.1323977,-122.6679078,cafe,Starbucks
49.2849149,-123.0599882,cafe,Far Out Coffee Post
49.2803909,-123.12543,cafe,Wall Flowers
49.2817947,-123.1246565,cafe,Starbucks
49.269642,-123.144421,cafe,Pâtisserie Lebeau
49.2439478,-123.1073594,cafe,Blue Parrot Coffee
49.2453491,-123.1247917,cafe,Starbucks
49.244046,-123.1238522,cafe,Shaughnessy Cafe
49.2632666,-123.1105064,cafe,Aperture Coffee Bar
49.1206115,-122.8911666,cafe,Starbucks
49.3742157,-123.2730541,cafe,Blenz
49.3743101,-123.2741597,cafe,Starbucks
49.2484101,-123.1008773,cafe,Aperture Coffee Bar
49.2866225,-123.1153226,cafe,Mink
49.247691,-123.0899686,cafe,Ubuntu Canteen
49.2792111,-123.116158,cafe,Pacific Coffee Roasters
49.2699444,-123.0694304,cafe,The Drive Coffee Bar
49.1937517,-123.1212608,cafe,1029 Cafe
49.2622219,-123.1223325,cafe,Bean Around The World
49.1855553,-122.8991338,cafe,"Maple Pizza, Grace Market"
49.2784508,-123.0991718,cafe,Wheat and Barley
49.279583099999996,-123.1241526,cafe,YaYa's
49.0408841,-122.2942369,cafe,Towers Cafe & Bake Shop
49.2846002,-123.1171091,cafe,Mario's
49.1557868,-122.9127622,cafe,Cravings Coffee
49.155787,-122.9116059,cafe,Tim Hortons
49.2786851,-123.0992577,cafe,Matchstick Coffee Roasters
49.2776328,-123.1310886,cafe,Gemini tea bar
49.2770169,-123.1151076,cafe,Rocanini
49.2092621,-123.1166316,cafe,Tim Hortons
49.2625653,-123.1012778,cafe,Rosemary Rocksalt
49.2630073,-123.0999351,cafe,Our Town Café
49.2859592,-123.1152363,cafe,Starbucks
49.2241883,-123.1019459,cafe,WEEDS
49.2127087,-122.9199963,cafe,Amelia Cafe
49.2121193,-122.9234503,cafe,Starbucks
49.2589012,-123.0699849,cafe,Bakery Sate
49.0304235,-122.7920135,cafe,Tim Hortons
49.2539218,-123.0677981,cafe,Chance Cafe
49.2525689,-123.0681922,cafe,Commercial Street Cafe
49.2480929,-123.1008145,cafe,Sweet Revenge
49.2814113,-123.0495721,cafe,Laughing Beans Coffee
49.278414,-123.1278962,cafe,Breka Bakery & Café
49.281317,-123.0587126,cafe,Pennyroyal Cafe
49.2251092,-123.0909697,cafe,Breka Bakery & Café
49.2194526,-122.9565497,cafe,Tealips Cafe
49.1973353,-123.1382237,cafe,Starbucks
49.2799449,-122.968225,cafe,Starbucks
49.2740655,-123.1273593,cafe,Trees Organic Coffee
49.2235955,-122.9423058,cafe,Caritas 9 Coffee Roasters
49.2618829,-123.2530369,cafe,The Loop Cafe
49.2343946,-123.1548066,cafe,Honolulu Coffee
49.2110582,-123.1304389,cafe,International Deli Cafe
49.2108729,-123.130452,cafe,Starbucks
49.0085414,-123.1296657,cafe,Salt Spring Coffee
49.124967,-123.1810418,cafe,Davood's Bistro
49.190133,-122.8005562,cafe,Tim Hortons
49.2732067,-123.1207367,cafe,Sciué Italian Bakery Caffé
49.2823797,-123.0742822,cafe,Cafe Rosemary
49.2515794,-122.9675712,cafe,Starbucks
49.021888,-122.8073015,cafe,
49.0219917,-122.807654,cafe,Pier Point Café
49.0230936,-122.8113096,cafe,Whitby's Coffee House
49.0223383,-122.8087908,cafe,The White Coffee & Ice Cream
49.0224187,-122.8090472,cafe,The Wafflers
49.022976,-122.8109114,cafe,Sea Side Coffee
49.0232917,-122.8119879,cafe,Zen Tea House
49.1118121,-122.7563977,cafe,Boothroyd Heritage Coffee
49.184947,-123.1291144,cafe,CoCo Fresh Tea & Juice
49.3056043,-123.0184387,cafe,Starbucks
49.2874193,-123.1145811,cafe,Tim Hortons
49.0249232,-123.0690851,cafe,Tim Hortons
49.027368,-123.0689767,cafe,Starbucks
49.2827821,-123.107962,cafe,JJ Bean
49.2616159,-123.1532497,cafe,Tangram Creamery
49.0472292,-122.2857628,cafe,Common Place Café
49.284888,-123.1180639,cafe,Starbucks
49.2848628,-123.1187816,cafe,Cafe Artigiano
49.2831204,-123.1213927,cafe,Cafe Artigiano
49.2840267,-123.1122692,cafe,Blenz Coffee
49.2840486,-123.11997,cafe,My Honey's Buns
49.2830645,-123.1214778,cafe,Faubourg Paris
49.2824438,-123.122325,cafe,Starbucks
49.276729,-123.1284758,cafe,Blue Mountain
49.2765348,-123.1287931,cafe,BC's Best Coffee
49.0248531,-123.0668815,cafe,Petra's Arts Kafe
49.2787671,-123.1378619,cafe,Sunset Beach Consession Stand
49.2717194,-123.1915572,cafe,Jericho Beach Consession
49.2642237,-123.0137679,cafe,Starbucks
49.2324709,-123.0240186,cafe,Starbucks
49.28147,-123.0230924,cafe,La Fontana Cafe
49.2709784,-123.087674,cafe,Starbucks
49.2721608,-123.0977203,cafe,Tim Hortons
49.2662772,-123.1527092,cafe,Arbutus Coffee
49.269022,-123.146012,cafe,Starbucks
49.268772,-123.145147,cafe,Bel Café
49.276885,-123.126064,cafe,Persian Tea House
49.2682302,-123.1661718,cafe,Cornerstone Coffee Shop
49.2681926,-123.1647073,cafe,Cafe Lokal
49.2776017,-123.1272193,cafe,Tim Hortons
49.2790558,-123.1255832,cafe,Starbucks
49.2767389,-123.1252348,cafe,Starbucks
49.0458048,-122.7755207,cafe,Tim Hortons
49.2825678,-123.1113926,cafe,Social Crust Cafe & Catering
49.3117019,-123.0804308,cafe,Tim Hortons
49.3269089,-122.9510904,cafe,BluHouse Market + Cafe
49.1641102,-123.1411844,cafe,
49.111986,-122.6447076,cafe,Tim Hortons
49.0549085,-122.3167959,cafe,Sumas Mountain Coffee Company
49.2249533,-122.9899105,cafe,Sweets & Beans
49.2813234,-123.0632825,cafe,Yama Cafe
49.2813135,-123.0608831,cafe,Mr Red Cafe
49.3266818,-122.9501214,cafe,Honey Doughnuts & Goodies
49.2106583,-123.1168256,cafe,CoCo Fresh Tea & Juice
49.2124748,-123.1406438,cafe,Mr. Mustache Bubble Tea
49.2139841,-123.1401327,cafe,Taan Char
49.2126966,-123.1406461,cafe,Bubble Bear Cafe
49.1872388,-123.1301642,cafe,Bubble World
49.1872373,-123.1299876,cafe,Cafe Savoureux
49.2672707,-123.249929,cafe,Starbucks
49.2630916,-122.8387533,cafe,Starbucks
49.263513,-123.1421078,cafe,Boba Boy
49.1152772,-122.6744991,cafe,Starbucks
49.1739173,-123.0709034,cafe,BG Urban Cafe
49.1145963,-122.6673314,cafe,Starbucks
49.3065535,-123.0345882,cafe,Tim Hortons
49.197151,-123.1766305,cafe,Starbucks
49.0080285,-123.1304068,cafe,Starbucks
49.26957,-123.139846,cafe,HY Tea Lounge
49.0280072,-122.2658428,cafe,Starbucks
49.2335878,-123.0657803,cafe,Starbucks
49.2861756,-123.1406216,cafe,JJ Beans
49.2834975,-123.1125167,cafe,Indigo Age
49.2844688,-123.1103327,cafe,Buro
49.2841913,-123.1099164,cafe,Brioche
49.1309121,-122.3196309,cafe,Starbucks
49.280139,-123.127256,cafe,Starbucks
49.1263913,-123.0961985,cafe,InBetween/Brunch
49.2272003,-122.9992087,cafe,Starbucks
49.1063618,-122.662628,cafe,Starbucks
49.1203832,-122.6633969,cafe,Creekside Coffee Factory
49.2872169,-123.1285584,cafe,Starbucks
49.278383,-123.1149456,cafe,Waves Coffee House
49.2852515,-123.1161798,cafe,Sciué
49.2846685,-123.115193,cafe,Starbucks
49.284954,-123.115582,cafe,Tim Hortons
49.0889422,-122.5994389,cafe,Tim Hortons
49.2685879,-123.2577672,cafe,Seedlings
49.1390281,-123.1383973,cafe,Starbucks
49.272054,-122.7557372,cafe,Blend Bubble Tea
49.2063511,-123.030686,cafe,Starbucks
49.2630659,-123.1165744,cafe,Honolulu Coffee
49.2609883,-123.1155765,cafe,Starbucks
49.1910842,-122.9471196,cafe,Starbucks
49.1702236,-123.1825064,cafe,Starbucks
49.2960431,-122.8036307,cafe,Starbucks
49.2612715,-123.2465592,cafe,Starbucks
49.2622036,-123.2449904,cafe,Perugia Italian Caffè
49.1185376,-122.801286,cafe,Java Hut Cafe
49.2306265,-123.0908896,cafe,Off the Grid Waffle Cafe
49.2668069,-123.0044268,cafe,Coco
49.2509036,-123.0032704,cafe,Gateway Deli
49.2798788,-123.1236378,cafe,Pallet Coffee Roasters
49.2250154,-122.9994084,cafe,Dessert Dynasty
49.211253,-123.1401676,cafe,Jenjudan
49.2740045,-123.1223976,cafe,Cha Yuan
49.2743949,-123.1262124,cafe,Matchstick
49.2545199,-123.1149885,cafe,Xing Fu Tang
49.2609647,-123.0699741,cafe,Kyle's Cafe
49.3242961,-123.0725862,cafe,Starbucks
49.3219602,-123.0725372,cafe,Blenz
49.325842,-123.071965,cafe,Brazza Gelato & Coffee
49.3225344,-123.0726516,cafe,Tim Hortons
49.2809219,-123.0144956,cafe,Oui Coffee House
49.281261,-123.0254265,cafe,In the Moment Coffee
49.1876471,-122.5522712,cafe,Kanaka Creek Coffee
49.2812597,-123.0536749,cafe,Starbucks
49.1743008,-123.1462035,cafe,Big Rock Café
49.181342,-123.0733524,cafe,Zia's Café and Grill
49.2621866,-123.2501357,cafe,Starbucks
49.3432812,-123.0187015,cafe,Lynn Canyon Café
49.1644966,-122.6648037,cafe,Starbucks
49.2020911,-122.9103538,cafe,Waves Coffee House
49.2671957,-123.0694571,cafe,Prado Cafe
49.2365916,-122.8529988,cafe,Café Vibrato
49.2367487,-122.8529918,cafe,Pearl Fever
49.2486982,-122.8648772,cafe,
49.2727336,-123.0284788,cafe,Ethical Bean Café
49.2645304,-123.1050298,cafe,Elysian Coffee Roasters
49.181473,-123.0709386,cafe,Canterbury Coffee
49.2839055,-123.1094962,cafe,Timbertrain
49.2837399,-123.1092308,cafe,Bamboo Cafe
49.1957833,-123.1849821,cafe,Max's Deli & Bakery
49.3795281,-123.3325118,cafe,Espresso Hut
49.2809701,-123.107834,cafe,Tim Hortons
49.264819,-123.1172519,cafe,Caffè Cittadella
49.2706869,-122.755531,cafe,Starbucks
49.2888664,-123.1311016,cafe,PappaRoti
49.2174816,-122.5924808,cafe,Austin Fish & Chips
49.1706498,-123.1326433,cafe,Tiger Sugar
49.211467999999996,-122.9200222,cafe,Café Exotica
49.21193,-122.9206054,cafe,Couzie's Cafe & Catering
49.2154085,-122.9240433,cafe,Tim Hortons
49.2131142,-122.9200555,cafe,Waves Coffee
49.2153812,-122.9228721,cafe,Coming Home
49.274973,-122.7909938,cafe,Pearl Fever Tea House
49.2661564,-122.7727844,cafe,Squish Juicery
49.2127759,-123.1401871,cafe,Xing Fu Tang
49.0498535,-122.3111436,cafe,Starbucks
49.0369738,-122.3114264,cafe,Starbucks
49.2631683,-123.1208683,cafe,Lotus Seed Vegan
49.2761071,-123.1217571,cafe,O-Cha Tea Bar
49.2764571,-123.1212148,cafe,Small Victory
49.2866311,-123.1340267,cafe,Greenhorn Espresso Bar
49.28207,-123.1137317,cafe,JJ Bean
49.2819959,-123.1136208,cafe,Field & Social
49.2868125,-123.1131691,cafe,Blenz Coffee
49.2877383,-123.1408632,cafe,Mediterranean Grill
49.1912858,-122.8085132,cafe,K Pop Bubble Tea
49.2638336,-123.1407841,cafe,Tim Hortons
49.024524,-123.0664854,cafe,Wood N Frog Coffee Company
49.0903529,-123.0826484,cafe,Stir Coffee House
49.2195226,-123.0410962,cafe,Starbucks
49.2578202,-123.1682797,cafe,Starbucks
49.2641628,-123.1663008,cafe,Starbucks
49.2771432,-123.1264714,cafe,Blenz Coffee
49.2799212,-123.1178938,cafe,Starbucks
49.2807244,-123.1224892,cafe,Waves Coffee House
49.2750713,-123.1333344,cafe,Prego Cofee
49.2632231,-123.1389199,cafe,Starbucks
49.2634549,-123.1383566,cafe,Blenz Coffee
49.2654797,-123.1382778,cafe,Starbucks
49.1346168,-122.303079,cafe,Tim Hortons
49.2639716,-123.1702755,cafe,Starbucks
49.2641245,-123.1632742,cafe,Thomas Haas
49.2637397,-123.1578123,cafe,Platform 7
49.2636686,-123.1485129,cafe,Solaris Coffee
49.263547,-123.1443925,cafe,Starbucks
49.2832473,-123.1164016,cafe,Xing Fu Tang
49.336065,-123.0376173,cafe,Starbucks
49.2591422,-123.100838,cafe,49th Parallel Café & Lucky's Donuts
49.258523,-123.1008804,cafe,Starbucks
49.2488206,-123.0006681,cafe,
49.2501092,-123.0015799,cafe,The Stand
49.2502546,-123.0016169,cafe,Tim Hortons
49.2513348,-122.99947710000001,cafe,Habitat Pub
49.2511737,-123.000389,cafe,
49.2540202,-123.0014179,cafe,Tim Hortons Express
49.265473,-123.135885,cafe,Wicked Cafe
49.0271581,-122.2826275,cafe,The Press Cafe and Store
49.2042222,-122.8752585,cafe,Anytime Coffee
49.2316937,-123.0296352,cafe,Jenjudan
49.1805293,-123.1347245,cafe,Exposure Bubble Tea
49.1786845,-123.1355283,cafe,Bobii Frutii
49.2473437,-123.1009465,cafe,Trafiq
49.3134274,-123.0773573,cafe,Starbucks
49.0488712,-122.2892378,cafe,Crimson Café
49.0498169,-122.2901256,cafe,duft & co. bakehouse
49.0499786,-122.2901273,cafe,Tracy Cakes
49.1910007,-122.8446255,cafe,Starbucks
49.1864097,-122.8502764,cafe,Tim Hortons
49.1247533,-122.7029021,cafe,Starbucks
49.1048977,-122.6514907,cafe,Coastal Coffee House
49.1597797,-122.7792854,cafe,Finest Cup
49.0906592,-123.084131,cafe,Cafe de Gourmet
49.0908426,-123.085357,cafe,Localz
49.256999,-123.1270226,cafe,16th Avenue Cafe
49.016249,-122.7852935,cafe,Verandah Cafe by the Beach
49.0167111,-122.7898448,cafe,Watts East Beach Cafe
49.0168093,-122.7905794,cafe,Leieve Tea
49.0174963,-122.79276,cafe,Spiritual Ingredients
49.2200672,-122.6569634,cafe,Starbucks
49.2196368,-122.646693,cafe,Hello Bubble
49.285758,-123.1116688,cafe,Starbucks
49.3116435,-123.0784649,cafe,West of Java Cafe
49.2687866,-123.0005841,cafe,Starbucks
49.1985695,-122.779565,cafe,Starbucks
49.2860362,-123.1230296,cafe,49th Parallel Café & Lucky's Doughnuts
49.2743631,-123.1268723,cafe,Doux Crêpes
49.1047723,-122.6852361,cafe,Corner Cafe
49.1624879,-122.6594592,cafe,Wired Monk
49.1633855,-122.658366,cafe,Mozart Bakery and Café
49.2238335,-122.8926135,cafe,Take Five Cafe
49.0584381,-122.4944791,cafe,
49.2875882,-123.1216196,cafe,Tim Hortons
49.249466,-123.1156479,cafe,Tim Hortons
49.2636844,-123.2393409,cafe,The Original Beanery
49.2577988,-123.1009212,cafe,Kind Cafe
49.2633404,-123.132654,cafe,Fufú Café
49.2857878,-123.1269044,cafe,Castella Cheesecake
49.2787557,-123.1301016,cafe,Molli Cafe
49.2803846,-123.1309375,cafe,Starbucks
49.0414779,-123.0868778,cafe,Starbucks
49.0404879,-123.0897972,cafe,Tim Hortons
49.190232,-122.8000771,cafe,Pearl Fever Tea House
49.2519791,-123.100768,cafe,Hayan Mug
49.2463221,-123.1014214,cafe,KingSize Bubble Tea & Games
49.2418836,-123.1016621,cafe,Matchstick
49.3084237,-123.042059,cafe,JJ Bean Coffee Roasters
49.3087172,-123.0423878,cafe,Starbucks
49.3120491,-123.0795445,cafe,The Green Moustache Organic Café
49.3099781,-123.0827907,cafe,CACAO 70 Sweet House
49.2636404,-123.1220797,cafe,Tony's Coffee
49.232398,-123.0255075,cafe,Sharetea
49.2556064,-123.1149305,cafe,TTOB
49.1874924,-123.1314015,cafe,Sharetea
49.1871801,-123.1243051,cafe,TTOB
49.1786003,-123.1279026,cafe,Snowy Village
49.1797165,-123.1392749,cafe,The Bubble Tea Shop
49.2696863,-123.1063556,cafe,The Bubble Tea Shop
49.2694623,-123.1063731,cafe,Blenz Coffee
49.2642321,-123.1144869,cafe,Starbucks
49.2812759,-123.0464917,cafe,Tim Hortons
49.2853345,-123.1122226,cafe,Sciué
49.2701097,-123.1091957,cafe,JJ Bean
49.2876852,-123.1205021,cafe,Caffè Artigiano
49.2792817,-123.1169322,cafe,Starbucks
49.2772564,-123.1187373,cafe,Starbucks
49.2768092,-123.1148343,cafe,Starbucks
49.2812108,-123.0121616,cafe,Starbucks
49.3794956,-123.3349766,cafe,The Snug Cafe
49.278021,-122.9094238,cafe,Tim Hortons
49.2809895,-123.0488387,cafe,Chatime
49.0506725,-122.3384403,cafe,Perk City Coffee House
49.2582579,-123.1008816,cafe,JJ Bean
49.2357054,-123.1855062,cafe,Q Coffee
49.0235249,-122.8013352,cafe,Five Corners Cafe
49.2720921,-123.134966,cafe,Siegel's Bagels
49.1343267,-122.8859602,cafe,Tim Hortons
49.2561422,-123.1855168,cafe,Tim Hortons
49.2830656,-123.1164538,cafe,Tim Hortons
49.2217743,-122.9884902,cafe,Beard Papa's
49.1192765,-122.669559,cafe,Pearl Fever Tea House
49.2149813,-122.9878155,cafe,Adam's crepes
49.270205,-123.136379,cafe,Pedro's Organic Coffee House
49.4329887,-123.4772643,cafe,Wheatberries Bakery
49.0451723,-122.7784676,cafe,Rosemary Rocksalt
49.0308162,-122.8347837,cafe,Tim Hortons
49.0993546,-122.6263383,cafe,Airport Coffee Shop
49.0895295,-122.6243711,cafe,Porter's Bistro & Coffee House
49.2566332,-123.2400277,cafe,Field House Cafe
49.2819083,-123.1056595,cafe,Lost + Found Cafe
49.0601621,-122.4944377,cafe,Starbucks
49.2812497,-123.085284,cafe,Prototype Coffee
49.2858499,-123.1270004,cafe,Prime's Thai Tea
49.2645954,-123.008068,cafe,Snow Angel Cafe
49.1874942,-123.1315748,cafe,BlackBall Taiwanese Dessert
49.1874965,-123.1302133,cafe,Hanlin Tea House
49.2478937,-123.089967,cafe,Eclettico Art & Coffee
49.2057308,-123.0105665,cafe,Tim Hortons
49.2310932,-123.155862,cafe,Chatime
49.2346961,-123.153812,cafe,Chase Tea
49.1926574,-123.1811535,cafe,Green Bean Cafe
49.192354,-123.1801464,cafe,Starbucks
49.1923624,-123.1840097,cafe,Java U
49.2306058,-123.0908166,cafe,Off the Grid Waffle Cafe
49.270577,-123.148057,cafe,Be Fresh Market
49.0580291,-122.3771818,cafe,Tim Hortons
49.2730547,-123.157463,cafe,Kitsilano Beach Cafe
49.2319246,-123.1168641,cafe,Starbucks
49.1393972,-123.0130154,cafe,Tilbury Shop
49.2273343,-123.0000498,cafe,Mr. Pretzels
49.220423,-122.9733465,cafe,CoCo Fresh Tea & Juice
49.2203613,-122.9730718,cafe,Xing Fu Tang
49.2202923,-122.9727403,cafe,TEA18
49.2513964,-122.8925708,cafe,Bubble World
49.2492777,-122.8921534,cafe,CoCo Fresh Tea & Juice
49.2596905,-123.0438986,cafe,Starbucks
49.2586029,-123.0307066,cafe,Starbucks
49.2821466,-123.1185541,cafe,Tim Hortons
49.058254,-122.8022881,cafe,Tim Hortons
49.2445292,-123.1257268,cafe,Second Cup
49.2458407,-123.1269344,cafe,Bean Around the World
49.2812059,-123.0063757,cafe,Caffè Artigiano
49.2700634,-123.103495,cafe,Boba Essence
49.2703779,-123.1009077,cafe,Railtown Café
49.2802559,-123.0988317,cafe,Aubade Coffee
49.2266075,-122.9933838,cafe,OneZo Tapioca
49.328484,-123.1608655,cafe,Starbucks
49.3288463,-123.1556108,cafe,Bubble Tree Cafe
49.3274811,-123.1566228,cafe,Cafe Crema
49.1890081,-122.8474254,cafe,Central Cafe
49.2571562,-123.1217915,cafe,Willow Cafe & Bakery
49.0381272,-122.2939696,cafe,Steamers Coffee House
49.2858583,-123.1118595,cafe,Jugo Juice
49.2883311,-123.1126862,cafe,Coal Harbour Cafe
49.2721373,-123.1338039,cafe,GI Gelato & Coffee House
49.3362744,-123.0387326,cafe,Delany's Coffee
49.049817,-122.3238611,cafe,After Thoughts
49.2907375,-123.1339997,cafe,Comebuy Bubble Tea
49.1690117,-123.1327737,cafe,Matcha Cafe Maiko
49.1786842,-123.1280785,cafe,Houcailei Oriental Tea House
49.2642297,-123.1694301,cafe,Kung Fu Tea
49.2639357,-123.1679165,cafe,Baroness Bubble Tea
49.2639588,-123.2095901,cafe,YiFang Taiwan Fruit Tea
49.2637294,-123.2115251,cafe,Starbucks
49.2644035,-123.1800767,cafe,Storm City Coffee
49.2643151,-123.173779,cafe,Starbucks
49.2640134,-123.1729476,cafe,Cartems Donuts
49.2329439,-123.0332487,cafe,BlackBall Taiwanese Dessert
49.3095058,-123.0794088,cafe,Caffè Artigiano
49.3107611,-123.0793632,cafe,InTea
49.2745255,-123.1224197,cafe,Caffé Artigiano
49.2752575,-123.1236127,cafe,JJBean
49.2755725,-123.1233974,cafe,Glory Juice
49.2757381,-123.1237304,cafe,Coo Coo Coffee
49.2726006,-123.0697391,cafe,Abruzzo Capuccino Bar
49.2723108,-123.0697495,cafe,
49.272442,-123.0697443,cafe,Cafe Du Soleil
49.1956932,-123.1844334,cafe,BG Urban Café
49.1789598,-123.131312,cafe,Chatime
49.2312257,-123.0059099,cafe,Houcailei Oriental Tea House
49.254425,-123.0233058,cafe,Starbucks
49.2831716,-123.1094595,cafe,Revolver
49.2635971,-123.1285321,cafe,Chiffon Patisserie
49.261607,-123.138273,cafe,Rangoli
49.2885653,-123.1392527,cafe,Coffee Bogo
49.3176174,-122.9698413,cafe,Bean Around the World
49.1250197,-123.1813556,cafe,Rocanini Coffee Roasters
49.2798648,-123.1276754,cafe,Elysian Coffee Roasters
49.1625893,-122.7914887,cafe,Tim Hortons
49.1646134,-122.8009598,cafe,Starbucks
49.1348903,-122.8452133,cafe,Tim Hortons
49.1369558,-122.8443469,cafe,Starbucks
49.0964857,-122.6241961,cafe,Starbucks
49.2732092,-123.0693164,cafe,Turk's
49.2210983,-122.988482,cafe,Camellia Tea & Coffee
49.0491172,-122.2897816,cafe,Sippchai 2.0
49.0488651,-122.2911082,cafe,Happy Hour Bubble Tea
49.2004954,-122.9169112,cafe,Starbucks
49.1495554,-122.8915984,cafe,Kumare
49.2877059,-123.1133343,cafe,Starbucks
49.2286146,-122.8930237,cafe,Starbucks
49.269394,-123.14098,cafe,Café Prado
49.2540797,-123.115006,cafe,Starbucks
49.1334308,-122.3216837,cafe,The Loco Blue Cafe
49.3122432,-123.0569481,cafe,S'wich Cafe
49.2591796,-123.1389048,cafe,Bean Around The World
49.2587432,-123.1389691,cafe,Phoscao Cafe
49.2586257,-123.1385101,cafe,Bump n Grind Cafe
49.2588402,-123.2480899,cafe,Bean Around The World
49.0523649,-122.3294807,cafe,City Cafe
49.044966,-122.2218883,cafe,Starbucks
49.0483868,-122.3122697,cafe,Gourmet Cup Beverage Station
49.3376967,-123.1025085,cafe,Starbucks
49.0616235,-122.3808366,cafe,Starbucks
49.2811797,-123.0088296,cafe,JJ Bean Coffee Roasters
49.2786009,-122.8377554,cafe,Caffè Divano
49.266587,-123.135408,cafe,Innocent Coffee
49.272173,-123.1351454,cafe,JJBean
49.2725816,-123.135486,cafe,Petit Ami
49.2729649,-123.1348732,cafe,The Blue Parrot Coffee
49.2724188,-123.134633,cafe,à la mode
49.2671474,-123.0903903,cafe,Kafka
49.1921658,-123.0837309,cafe,Starbucks
49.1912604,-123.1294094,cafe,Starbucks
49.2843874,-123.1086358,cafe,Starbucks
49.2515901,-123.1272753,cafe,Pallet Coffee Roasters
49.291492,-123.1356594,cafe,The Spot Cafe
49.0493921,-122.2915255,cafe,Oldhand Cafe and Bakery
49.2903172,-123.12894,cafe,Take Five Café
49.2781671,-122.8141469,cafe,Tim Hortons
49.2261523,-122.991921,cafe,Joe's Table Cafe
49.0566403,-122.8082534,cafe,The Country Cafe
49.2811335,-123.073946,cafe,Starbucks
49.282078,-123.0815368,cafe,Casa Del Caffe
49.2253027,-123.0040361,cafe,Fondway Cafe
49.224678,-122.8921014,cafe,Starbucks
49.2347042,-123.157248,cafe,Bean Brothers Cafe Bistro
49.2489019,-122.8184783,cafe,Starbucks
49.2487993,-122.8635794,cafe,Jimico Cafe & Pasta
49.2811807,-123.1242771,cafe,Tim Hortons
49.283029,-123.121574,cafe,Cafe Bellagio
49.1695629,-122.5761008,cafe,Sabà Cafe and Bistro
49.1329601,-123.0981949,cafe,Tim Hortons
49.2685244,-123.1709004,cafe,Artistry Coffee Shop & Bistro
49.310375,-123.0805596,cafe,Nemesis
49.2740455,-123.0693604,cafe,Joe's Cafe
49.2696814,-123.0445103,cafe,Demi Bubble Tea
49.281888,-122.8270859,cafe,The Green Moustache
49.25193,-123.1011606,cafe,Liberty Bakery
49.2516862,-123.101184,cafe,Coco et Olive Café
49.2476955,-123.1008954,cafe,Blenz
49.2473125,-123.1013883,cafe,Continental Coffee
49.2494619,-123.127949,cafe,Dragon Ball Tea House
49.1856914,-123.1298509,cafe,Chase Tea
49.2606832,-123.0332114,cafe,Tim Hortons
49.2190586,-122.9506847,cafe,K's Oriental Dessert
49.225606,-122.9966116,cafe,CoCo Fresh Tea & Juice
49.3259138,-123.1410177,cafe,Delaney's Coffee
49.3257329,-123.1435932,cafe,Caffè Artigiano
49.2521186,-122.8933488,cafe,Tim Hortons
49.2029018,-122.9108329,cafe,The Hide Out Cafe
49.2025764,-122.9077698,cafe,Hive Cafe
49.312247,-122.9259779,cafe,
49.3377971,-123.1010057,cafe,Caffè Artigiano
49.3372535,-123.1018788,cafe,Delany's Coffee House
49.1714666,-122.578285,cafe,lelem' Arts & Cultureal Cafe
49.2848648,-123.0659643,cafe,The Pie Shoppe
49.2643545,-122.9814436,cafe,Starbucks
49.2255268,-123.1018603,cafe,Tim Hortons
49.2770021,-122.7952609,cafe,Starbucks
49.2193523,-122.9277706,cafe,Tim Hortons
49.3202692,-123.0665723,cafe,BLENZ HOpe cafe
49.1091493,-122.6500672,cafe,Twins Coffee
49.1363196,-122.889941,cafe,De Dutch
49.2488267,-122.863287,cafe,Coffee & Vanilla
49.262339,-123.0895947,cafe,Catoro Cafe
49.2360504,-123.041102,cafe,Café Foam
49.2581328,-122.9356267,cafe,Scardillo Cheese
49.1495196,-122.8463667,cafe,Training Day Cafe
49.22701,-123.1287335,cafe,Jazen Tea
49.2637917,-123.1400621,cafe,Chatime
49.0509808,-122.3246777,cafe,Starbucks
49.0502684,-122.3188675,cafe,Starbucks
49.2815748,-122.7958315,cafe,Awesome Place Coffee and Desert
49.1056779,-122.6728154,cafe,Gossip Corner Cafe
49.2190107,-122.9280084,cafe,Raw Cuts Sandwich Shop
49.262659,-123.2517449,cafe,Magma Cafè
49.264044,-123.174166,cafe,Tim Hortons
49.2784237,-122.806704,cafe,Creekside Coffee
49.2824201,-122.8263395,cafe,Gallagher's Cafe
49.2836044,-123.1036863,ice_cream,Soft Peaks Ice Cream
49.2769275,-123.0815616,ice_cream,La Casa Gelato
49.2481556,-123.1008994,ice_cream,Yum Sweet Shop
49.3122343,-123.0799609,ice_cream,Earnest Ice Cream
49.2795862,-123.0749371,ice_cream,Earnest Ice Cream
49.240749,-123.1016806,ice_cream,Innocent Ice Cream
49.1696893,-122.5787014,ice_cream,Ritual
49.0427677,-122.7797381,ice_cream,Marble Slab Creamery
49.264266,-123.1718556,ice_cream,I.ce Queen
49.1326321,-123.0931064,ice_cream,Marble Slab Creamery
49.3128161,-123.1427548,ice_cream,
49.2736081,-123.1185044,ice_cream,Bella Gelateria
49.2551419,-123.1148934,ice_cream,Rain or Shine Ice Cream
49.2699059,-123.1030986,ice_cream,Mario's Gelato
49.2579705,-123.1679754,ice_cream,La Glace
49.263404,-123.1162261,ice_cream,Marble Slab Creamery
49.1839823,-123.1358666,ice_cream,Ice Queen
49.1721554,-123.1335514,ice_cream,Sulmida Dessert Cafe
49.2679235,-123.1486541,ice_cream,Rain or Shine
49.2626043,-123.0823703,ice_cream,Rooster's Ice Cream Bar
49.3151604,-123.0669093,ice_cream,Welcome Parlour Ice Cream
49.0584261,-122.3803524,ice_cream,Popbar
49.2493503,-123.0898772,ice_cream,Earnest Ice Cream
49.3266815,-122.9499512,ice_cream,Gelato Express
49.3266808,-122.9502983,ice_cream,Deep Cove Ice Cream Café
49.1857233,-122.8001212,ice_cream,Snowy Village
49.2664945,-123.2468887,ice_cream,Rain or Shine
49.2553503,-123.1010809,ice_cream,Buckets Ice Cream
49.2801317,-122.8281519,ice_cream,Menchie's
49.2819069,-123.1187639,ice_cream,Cacao 70
49.2656413,-123.1005753,ice_cream,Cartem Donuts
49.3123945,-123.082122,ice_cream,Marble Slab Creamery
49.1968203,-123.1402994,ice_cream,Qoola
49.0085035,-123.1299042,ice_cream,On The Go Gelato
49.0220092,-122.8077225,ice_cream,Cones Old Fashioned Ice Cream
49.0219041,-122.8073642,ice_cream,Crazy Cows Ice Cream
49.0231154,-122.8113922,ice_cream,Whitby's Coffee House
49.0225353,-122.8094678,ice_cream,Seaside Scoops Ice Cream Gelato Caf́e
49.0224366,-122.8091503,ice_cream,Ocean Rock Cafe Gelato & Ice Cream
49.3275206,-123.1569596,ice_cream,Tcby
49.2834894,-123.1067348,ice_cream,The Praguery
49.2662508,-123.0695038,ice_cream,Elephant Garden Creamery
49.2750378,-123.123373,ice_cream,Yaletown Gelato
49.1983722,-122.9781715,ice_cream,Marble Slab Creamery
49.2808343,-122.996993,ice_cream,Nuvola Gelato & Dolci
49.2130562,-122.9199974,ice_cream,The Cone Zone
49.1374424,-122.8917347,ice_cream,Menchie's
49.0493247,-122.3121553,ice_cream,Purdy's Chocolates
49.2878268,-123.1162114,ice_cream,Bella Gelateria
49.0502884,-122.2899865,ice_cream,Common Good Ice Cream Lounge
49.2010176,-122.9172377,ice_cream,Menchie's
49.1244634,-122.7042199,ice_cream,Peachwave Frozen Yogurt
49.091498,-123.0845299,ice_cream,Sara's
49.0170484,-122.7913535,ice_cream,Heaven's Angels Ice Cream Gifts & Gelato
49.0173797,-122.7924,ice_cream,Sandcastle Sea Shoppe
49.0172035,-122.79182,ice_cream,Famous ROME Ice Cream
49.0410151,-123.0874949,ice_cream,Menchie's
49.1144809,-122.680051,ice_cream,Baskin-Robbins
49.2848162,-123.1247532,ice_cream,Perverted Ice-Cream
49.2794779,-122.8494092,ice_cream,Rocky Point Ice Cream
49.2883139,-123.1400135,ice_cream,
49.374243,-123.273188,ice_cream,Baskin-Robbins
49.2808609,-123.0146051,ice_cream,Glenburn Soda Fountain & Confectionery
49.2804624,-123.0986151,ice_cream,Umaluna Dairy-Free Gelato
49.0485619,-122.2926934,ice_cream,2 Scoops
49.276624,-122.794802,ice_cream,Marble Slab Creamery
49.2640556,-123.1772222,ice_cream,720 Sweets & Etc.
49.2824941,-122.8256052,ice_cream,Casa Dolce Gelato
49.2866738,-123.1283087,ice_cream,Yogen Früz
49.2861582,-123.1274973,ice_cream,D'oro Gelato e Caffè
49.2294308,-123.0019979,ice_cream,Soft Peaks Ice Cream
49.117708,-122.6705015,ice_cream,Marble Slab Creamery
49.0882738,-123.1468513,ice_cream,Ice Cream Shoppe
49.2831924,-123.1090499,pub,The Cambie
49.2659507,-123.2466297,pub,Mahony and Sons
49.2684891,-123.258088,pub,Koerner's Pub
49.2672519,-123.1033949,pub,R & B Ale & Pizza House
49.2866559,-123.1274985,pub,Shenanigans
49.2687109,-123.1186399,pub,The Wicklow Pub
49.2094419,-123.1161616,pub,Dublin Crossing Irish Pub
49.2842068,-123.1002041,pub,Alibi Room
49.2795471,-122.82931,pub,Romer's
49.1654069,-122.6633306,pub,Browns Social House
49.2077342,-122.9309659,pub,The Thirsty Duck
49.2225148,-122.6904636,pub,Jolly Coachman Pub
49.2329149,-123.0761197,pub,East Side Craft House
49.2632663,-123.110529,pub,
49.316484,-122.9533431,pub,Raven Pub
49.2785872,-122.8510267,pub,Parkside Brewing
49.2849397,-123.0649633,pub,Princeton Pub
49.2841314,-123.1083829,pub,Pourhouse
49.103954,-122.734208,pub,Clydesdale Coverdale
49.104928,-122.658331,pub,Baselines Pub
49.0904352,-123.0723913,pub,The Landing Pub & Grill
49.2665769,-123.2501701,pub,The Pit
49.2714968,-123.1006411,pub,Dubh Linn Gate
49.0684981,-122.3585303,pub,Townline Taphouse and Grill
49.0450223,-122.6684393,pub,The Artful Dodger Pub
49.2898003,-123.1168924,pub,Tap & Barrel
49.3172364,-123.1082535,pub,Pemberton Station Neighbourhood Pub
49.19556,-123.1832043,pub,Monk's Grill
49.2374083,-122.8703331,pub,Woody's on Brunette
49.3742609,-123.2735244,pub,Troller Ale House
49.1597928,-122.196831,pub,Dewdney Pub
49.2803131,-123.1216797,pub,Cinema Public House
49.0466407,-122.3687569,pub,Red21
49.2759064,-123.1278016,pub,Yale Hotel
49.2813339,-123.0454428,pub,PressBox Pub
49.2514566,-122.9020031,pub,Lougheed Village Bar & Grill
49.267356,-123.1110469,pub,Big Rock Urban Eatery
49.2248337,-122.689108,pub,Foamers' Folly Tap Room
49.2835624,-123.1038811,pub,The Portside Pub
49.2717552,-123.1060666,pub,Tap & Barrel
49.1303474,-122.0734617,pub,Dukes Pub
49.2251023,-122.997148,pub,Firefighters' Public House
49.2231427,-122.9815705,pub,Great Bear Pub
49.2725892,-123.1487921,pub,Corduroy
49.2848692,-123.1109875,pub,Steamworks
49.2796374,-122.8175723,pub,The Frog and Nightgown Pub
49.272446,-123.1553117,pub,Local Public Eatery
49.2716021,-123.155352,pub,The Ellis
49.0294267,-122.8019172,pub,White Rock Beach Beer
49.0053837,-122.7361939,pub,The Bennett
49.2782909,-123.1241919,pub,Donnelan's
49.1711728,-122.577262,pub,Fort Pub & Grill
49.2824055,-123.1111441,pub,The Magnet
49.26404,-123.174703,pub,Fringe
49.2639533,-123.1696182,pub,Yagger's Kits
49.2802411,-123.1250614,pub,Relish
49.2800328,-123.1146849,pub,Library Square Public House
49.270944,-123.1552107,pub,Chewies
49.3794252,-123.3377721,pub,Bowen Island Pub
49.2640449,-123.1567706,pub,The Regal Beagle
49.2688201,-123.0967506,pub,Truck Stop Diner
49.2828919,-123.1040897,pub,Irish Heather
49.2694368,-123.103525,pub,Brewhall
49.2812723,-123.1077237,pub,The Pint
49.1495495,-122.8908817,pub,One20 Public House
49.2851463,-123.1184912,pub,Blackbird
49.3234334,-123.1024615,pub,Hearthstone Tap & Forno
49.2902748,-123.1317492,pub,Red Accordion
49.2855675,-123.1165611,pub,Moose's Down Under
49.2702595,-123.1340523,pub,Off the tracks bar & bistro
49.2837114,-123.106243,pub,The Lamplighter Public House
49.278541,-122.8484018,pub,Twin Sails Brewery
49.2869412,-123.1148363,pub,Lions Pub
49.2248844,-122.8926368,pub,Browns Socialhouse
49.2558057,-123.1153793,pub,Biercraft
49.3056675,-123.0347732,pub,Wildeye Tasting Room
49.1242908,-123.1839261,pub,Britannia Steveston
49.0316321,-122.8008429,pub,Sawbuck's Neighbourhood Pub
49.1686753,-122.5799329,pub,Trading Post Eatery
49.1679153,-122.8008127,pub,Jack's Public House
49.2822628,-123.1337681,pub,Guu Davie
49.2707953,-123.0697877,pub,The Dime
49.2571036,-123.1008894,pub,Five Point
49.2750615,-123.0996424,pub,The Ivanhoe
49.1327142,-122.3199168,pub,Browns Socialhouse
49.278388,-123.099578,pub,London Pub
49.1703636,-123.1448324,pub,Ceili's Modern Irish Pub
49.1321719,-122.3416713,pub,Mission Springs Brewing Company
49.2845626,-123.1084807,pub,The Black Frog
49.2464886,-122.8910088,pub,The Taphouse
49.2684563,-123.0694073,pub,Falconetti's
49.2637854,-123.0695196,pub,St Augustine's
49.2037034,-123.1334192,pub,
49.3127252,-123.0272348,pub,Seymour's Pub
49.2603011,-123.0966837,pub,12 Kings Pub
49.2821875,-123.1090478,pub,The Hastings Warehouse
49.2840215,-123.1141074,pub,Malone's
49.277605,-123.1257615,pub,Sidecar
49.1768204,-122.8878011,pub,Donegal's Irish House
49.2527999,-122.7672467,pub,Cat and Fiddle
49.2696427,-122.9464665,pub,Hop & Vine
49.1550298,-122.9135108,pub,Delta Lion Pub
49.1835444,-123.1046673,pub,Fogg N' Suds
49.2789342,-123.1237243,pub,Johnnie Fox's Irish Snug
49.281417,-123.0949933,pub,Pat's Pub
49.2833904,-123.1044226,pub,Six Acres
49.3135162,-123.0833432,pub,Sailor Hägar's
49.2820425,-123.0723691,pub,Finfolk
49.2653352,-123.1453811,pub,Carlos O`Bryan's Neighborhood Pub
49.2838402,-123.1138503,pub,Browns Crafthouse
49.2837887,-123.0643214,pub,Parallel 49 Street Kitchen
49.2032866,-122.8919373,pub,
49.2870731,-123.1418005,pub,The Three Brits Public House
49.2794324,-123.1235884,pub,The Moose
49.2836569,-123.1041219,pub,Guilt & Co
49.2797733,-123.1130766,pub,Browns Social House
49.2754345,-123.1209961,pub,Yaletown Brewing Company
49.1240805,-123.1809116,pub,Steveston Built Local Taphouse
49.2801019,-123.1213535,pub,Dublin Calling
49.2769066,-123.1154049,pub,Red Racer Taphouse
49.1876904,-122.8484563,pub,Central City Brewing Company
49.2772898,-123.0660472,pub,Wise Club & Hall
49.2513484,-123.0777934,pub,Cedar Cottage Pub
49.2814612,-123.1051707,pub,Darby's
49.314727,-123.0795961,pub,Fraternal Order of Eagles Aerie 2638
49.1690214,-122.9902779,pub,Tugboat Annie's
49.2637537,-122.7814095,pub,Samz
49.1063467,-122.6569933,pub,Match Eatery & Public House Langley
49.0212249,-122.8050316,pub,Dew Drop Inn
49.021714,-122.8067325,pub,Oceanside Public House
49.1242577,-122.7020835,pub,Dublin Crossing
49.1256453,-123.1859221,pub,The Buck & Ear Bar and Grill
49.2817874,-123.1067495,pub,Grand Union Hotel
49.2719209,-122.757155,pub,Meridian Arms Pub
49.2668041,-122.7727603,pub,The Bennett Craft & Kitchen
49.2639564,-123.1152029,pub,Milestones
49.280708,-123.1172196,pub,Kingston
49.279654,-123.12973,pub,Fountainhead Pub
49.1191476,-122.8914658,pub,Sundowner
49.2785388,-122.8487087,pub,Yellow Dog Brewing
49.2786245,-122.8543622,pub,Moody Ales
49.2834684,-123.0736709,pub,Andina Tasting Lounge
49.3363613,-123.0721597,pub,Queens Cross
49.0488243,-122.2892706,pub,Gator's Pub
49.2368807,-122.8719474,pub,Townhall Public House
49.2683292,-123.1003762,pub,The Narrow Lounge
49.2119854,-122.9211331,pub,Moonrakers Pub
49.2094623,-122.9160017,pub,River's Reach Pub
49.2822225,-123.1241191,pub,Ballyhoo Public House
49.2705549,-123.1356713,pub,Granville Island Brewing Taproom
49.2827946,-123.1041486,pub,Blarney Stone
49.1342493,-122.8450804,pub,Kelly's Pub
49.2644903,-123.1842004,pub,The Wolf and Hound
49.2639431,-123.1492041,pub,Manchester Public Eatery
49.281145,-123.119819,pub,Lennox Pub
49.0356296,-122.2689408,pub,Abbey Road Taphouse
49.2642338,-123.1725691,pub,Russel Brewing Company
49.2638288,-123.1416759,pub,Storm Crow Alehouse
49.2514468,-123.0017365,pub,Habitat
49.1989911,-122.8115444,pub,Jolly Mac's
49.016786,-122.7904237,pub,Sand Piper Pub
49.2705733,-123.1063824,pub,Craft Restaurant & Bar
49.1347397,-123.0646481,pub,Monkey 9 Brewing
49.2777673,-123.0989237,pub,The Union
49.0607423,-122.4948144,pub,Mustang's
49.2769812,-122.857362,pub,Burrard Public House
49.0475617,-122.2919239,pub,Bankrupt Social Spot
49.0485387,-122.289184,pub,Gator's Pub
49.2809539,-123.023841,pub,Oscar's Pub
49.1339963,-123.1692444,pub,O'Hare's Gastropub
49.0294857,-122.8013578,pub,3 Dogs Brewing
49.1557483,-122.7784001,pub,Edith & Arthur Public House
49.3098238,-123.0735886,pub,Finch and Barley
49.2769132,-122.832616,pub,Brew Street Pub
49.2789269,-123.1231338,pub,The Beaver Taphouse
49.2780156,-123.0995912,pub,Brickhouse
49.192278,-123.1802289,pub,Stanley Park Taphouse
49.1928061,-123.1819413,pub,Vino Volo
49.1122045,-123.0389345,pub,Barnside Brewery Co.
49.2682508,-123.1686006,pub,Darby's Public House & Liqour Store
49.14012,-123.1373979,pub,Pioneer's Pub
49.103775,-122.8006309,pub,Big Ridge Brewing Company
49.332636,-123.0893218,pub,Two Lions
49.2823155,-122.8258606,pub,St. James Well Pub
49.1999327,-122.9117725,pub,Paddlewheeler Pub
49.1773107,-123.1681742,pub,The Flying Beaver
49.3252622,-123.1426122,pub,The Village Taphouse
49.2487411,-122.8672207,pub,John B Pub
49.2826657,-122.8269784,pub,Brown's Social House
49.260953,-123.125704,fast_food,Salad Loop
49.2347493,-123.1547249,fast_food,McDonald's
49.1401463,-123.1378853,fast_food,Subway
49.1398614,-123.137394,fast_food,KFC
49.1486188,-123.1358921,fast_food,Pizza Hut (takeout)
49.1330851,-123.0940869,fast_food,McDonald's
49.1329977,-123.0973124,fast_food,Burger King
49.091207,-122.9564485,fast_food,Triple O's
49.2427149,-123.004048,fast_food,Subway
49.2866244,-123.1282577,fast_food,Chongqing on Robson
49.2867409,-123.1284213,fast_food,A Taste of India
49.2865615,-123.1281828,fast_food,Pok'e Time
49.2657244,-123.2430971,fast_food,Red Burrito
49.2661113,-123.2420861,fast_food,Pita Pit
49.0558043,-122.2722298,fast_food,Subway
49.13295,-122.5818856,fast_food,Triple O's
49.2842686,-123.1197597,fast_food,Smokehouse Sandwich Co
49.2860548,-123.1251718,fast_food,A&W
49.2860886,-123.1252316,fast_food,Subway
49.2633356,-123.1144174,fast_food,A&W
49.3810218,-123.0791455,fast_food,Beaver Tails
49.0523043,-122.3227371,fast_food,Lully's Sandwich Bar
49.2501163,-122.8923026,fast_food,McDonald's
49.1742656,-122.6668885,fast_food,Triple-O's
49.2262222,-123.1287693,fast_food,Tim Hortons
49.2037589,-122.9046452,fast_food,Eats at the Pier
49.0497709,-122.3190013,fast_food,
49.1967129,-123.1395095,fast_food,JAPADOG
49.2725297,-123.0562043,fast_food,Panago Pizza
49.1633833,-122.6594915,fast_food,Taco Del Mar
49.2540332,-122.7388698,fast_food,Mucho Burrito
49.2548653,-122.7354267,fast_food,McDonald's
49.2541361,-122.7388679,fast_food,Five Guys
49.2544914,-122.7381621,fast_food,Subway
49.1399686,-122.6001998,fast_food,The Lower Cafe
49.2567827,-123.184916,fast_food,Dairy Queen
49.171823,-122.6674842,fast_food,Quiznos
49.3264468,-123.1204257,fast_food,Panago
49.29089,-123.1342671,fast_food,Subway
49.1659998,-122.6645407,fast_food,Booster Juice
49.2081902,-123.1401346,fast_food,Freshslice
49.208235,-123.1401305,fast_food,Donair Spot
49.2312042,-123.0657754,fast_food,Freshslice Pizza
49.0498661,-122.311635,fast_food,Subway
49.0498031,-122.3114531,fast_food,A&W
49.0495367,-122.3117487,fast_food,DQ Orange Julius
49.0496405,-122.3118348,fast_food,New York Fries
49.0495887,-122.3117934,fast_food,OPA! of Greece
49.0498388,-122.3117035,fast_food,Manchu Wok
49.0496845,-122.311872,fast_food,ono's of Japan
49.0497721,-122.311822,fast_food,Freshslice Pizza
49.049844,-122.3115361,fast_food,Thaï Express
49.2630367,-123.1013042,fast_food,Freshslice Pizza
49.1997306,-122.7784622,fast_food,A&W
49.2081236,-123.1407827,fast_food,McDonald's
49.2601826,-123.0056472,fast_food,McDonald's
49.265883,-123.0242786,fast_food,McDonald's
49.1239129,-123.1863673,fast_food,Pajo's Fish and Chips
49.2467974,-123.068237,fast_food,Subway
49.2191586,-122.9695668,fast_food,Papa John's
49.2196492,-122.9692126,fast_food,A&W
49.2196001,-122.9683007,fast_food,Subway
49.2196141,-122.9685904,fast_food,Panago
49.2218138,-122.9969317,fast_food,Domino's
49.233088,-123.0657292,fast_food,McDonald's
49.233102,-123.0659438,fast_food,Kent's Kitchen
49.2179175,-123.0766614,fast_food,Hometown Pizza
49.2256886,-123.0777235,fast_food,Papa Dave's Pizza Indian Cuisine
49.2182564,-123.0773813,fast_food,McDonald's
49.2256116,-123.0777236,fast_food,KFC
49.2633884,-123.1160798,fast_food,McDonald's
49.2632776,-123.1106188,fast_food,Fatburger
49.2633362,-123.113621,fast_food,Subway
49.2634886,-123.1215189,fast_food,A&W
49.2390725,-123.0650033,fast_food,Dairy Queen
49.2906218,-123.1338516,fast_food,McDonald's
49.184369,-122.9507625,fast_food,Queensboro Pizza
49.2787084,-122.8066737,fast_food,Domino's
49.2272898,-123.0001015,fast_food,Uni Sushi Express
49.1186802,-122.6700701,fast_food,Fresh Donair
49.213342,-122.9375173,fast_food,Quick Bite
49.218633,-122.9551616,fast_food,Burger King
49.2255444,-122.9968024,fast_food,Chop n Toss
49.2258643,-122.9969705,fast_food,Burger King
49.2258877,-122.9975787,fast_food,Chef Tony Dim Sum
49.2253972,-122.9972623,fast_food,Chronic Tacos
49.2254547,-122.9975777,fast_food,Thaï Express
49.2254008,-122.997067,fast_food,Koya Japan
49.2254531,-122.9968869,fast_food,Subway
49.2257969,-122.9968887,fast_food,Bubble Waffle Cafe
49.2258275,-122.9969398,fast_food,Manchu Wok
49.2254863,-122.9976519,fast_food,Vina Vietnamese
49.2255226,-122.9977261,fast_food,Chachi’s
49.2255531,-122.9977931,fast_food,U-Grill
49.2259279,-122.9975146,fast_food,Crêpe de Licious
49.2258084,-122.9977187,fast_food,Curry Express
49.2257836,-122.9978073,fast_food,Orange Julius
49.2275306,-122.999928,fast_food,Freshslice Pizza
49.2257638,-122.9967208,fast_food,Togo Sushi
49.2253988,-122.9971646,fast_food,Opa! Of Greece
49.2254197,-122.9969699,fast_food,KFC
49.2254951,-122.9968289,fast_food,New York Fries
49.2258501,-122.9976493,fast_food,Bourbon St. Grill
49.2254058,-122.9973612,fast_food,A&W
49.2274703,-122.9998197,fast_food,The American Cheese Steak Co.
49.2507154,-122.89576,fast_food,Sashimi Sushi
49.2798847,-123.1068032,fast_food,Canra Plus
49.2799835,-123.1065637,fast_food,Ryo
49.2800531,-123.1064691,fast_food,India’s Flavour
49.2800925,-123.1064315,fast_food,Kazoku
49.227688,-122.836293,fast_food,Made to Order Chip's
49.2278297,-122.8401544,fast_food,Triple Os
49.2507778,-122.8945798,fast_food,Wok
49.25081,-122.8946267,fast_food,Kojo of Japan
49.2508506,-122.8947628,fast_food,A&W
49.2277796,-122.8362961,fast_food,FU Express
49.2276126,-122.83629379999999,fast_food,Roadies
49.2808969,-123.1073143,fast_food,McDonald's
49.2799281,-123.1066781,fast_food,Taco Time
49.2799047,-123.106734,fast_food,Bubble King
49.2799553,-123.1066209,fast_food,Tina
49.2800166,-123.1065184,fast_food,Thai Town
49.2801753,-123.1063639,fast_food,Wow Thai Food
49.2802143,-123.1063341,fast_food,Bali Thai
49.2802598,-123.1063002,fast_food,Giant Panda
49.3050257,-123.0144026,fast_food,Tim Hortons
49.1960345,-123.1771649,fast_food,Wendy's
49.1957016,-123.1769158,fast_food,Thai Hang
49.0365009,-122.2911624,fast_food,Papa John's
49.28645,-123.1403248,fast_food,Yummy to Go
49.2726318,-123.1353692,fast_food,Fraser Valley Juice
49.2726607,-123.1353169,fast_food,Pizza Pzazz
49.2295422,-123.0031558,fast_food,Wu Han Spicy Duck
49.2195995,-122.9680176,fast_food,Church's Chicken
49.2186313,-122.955309,fast_food,Cora
49.2128537,-122.9368713,fast_food,Subway
49.2821283,-123.1164589,fast_food,Bay Sushi Cafe
49.2820949,-123.1165023,fast_food,Kung Fu Noodle
49.2826167,-123.1151176,fast_food,Pokérrito
49.282708,-123.1147514,fast_food,Dae Ji
49.2826109,-123.1146226,fast_food,Sushi Home
49.2825668,-123.1145555,fast_food,Big Bowl Rice
49.1771813,-122.6691551,fast_food,McDonald's
49.2029525,-122.9086925,fast_food,Fresh Slice Pizza
49.2116185,-122.9237431,fast_food,Panago
49.1126928,-122.6723021,fast_food,Chipotle
49.2750527,-123.1221518,fast_food,Living Produce Aisle
49.2751119,-123.1214624,fast_food,Mister
49.1537523,-123.1584726,fast_food,McDonald's
49.1548975,-123.1578804,fast_food,Subway
49.263303,-123.1007167,fast_food,Pizza 604
49.1691756,-122.9586576,fast_food,Wendy's
49.1692142,-122.9585182,fast_food,Tim Hortons
49.1720147,-122.9461371,fast_food,Subway
49.1039933,-122.6615637,fast_food,Panago
49.044471,-122.7772142,fast_food,A&W
49.1614935,-122.8908325,fast_food,KFC
49.1614786,-122.89107,fast_food,Taco Bell
49.2027477,-122.8795076,fast_food,McDonald's
49.2634479,-123.1380669,fast_food,McDonald's
49.2656704,-123.2542726,fast_food,Pizza Pizza
49.2655654,-123.254337,fast_food,Stackables
49.2601863,-123.2483972,fast_food,Tim Hortons
49.090412,-123.0782287,fast_food,Subway
49.1616399,-123.1358929,fast_food,McDonald's
49.1540431,-123.1249608,fast_food,A&W
49.1552993,-123.123732,fast_food,Church's Chicken
49.1321157,-123.0947566,fast_food,Quiznos
49.1322997,-123.0914934,fast_food,Taco Del Mar
49.0905831,-123.0857057,fast_food,Panago Pizza
49.0894108,-123.0802013,fast_food,Little Caesars
49.0359205,-123.0691691,fast_food,McDonald's
49.1445825,-123.0923099,fast_food,Kong's Kitchen
49.2267483,-123.128868,fast_food,A&W
49.2796709,-123.1221195,fast_food,Harvey's
49.2332678,-123.1012746,fast_food,Subway
49.2739585,-123.0980509,fast_food,A&W
49.2730825,-123.1039764,fast_food,White Spot Triple O's
49.2838013,-123.1158299,fast_food,Urban Sushi
49.2730334,-123.1003915,fast_food,A&W
49.3239681,-123.1028264,fast_food,Subway
49.2287941,-123.0049323,fast_food,Fung May
49.2287084,-123.0049519,fast_food,Hana Sushi
49.2286381,-123.0049694,fast_food,Bo Wah
49.228604,-123.004979,fast_food,Shanghai
49.2286289,-123.0051138,fast_food,Yunnan
49.2286458,-123.005225,fast_food,Seafood House
49.2286561,-123.0052821,fast_food,99 Bbq
49.228841,-123.0053282,fast_food,Shaxian
49.2288199,-123.0050014,fast_food,Best Noodle
49.2286742,-123.0049603,fast_food,Happy Ice
49.2285385,-123.0050018,fast_food,Want Want
49.228506,-123.0050182,fast_food,Chao Shou
49.2284711,-123.0050421,fast_food,Delicious B.b.q.
49.2284351,-123.0049538,fast_food,Shanghai Dimsum
49.2285425,-123.0050834,fast_food,Huaxi
49.2285812,-123.0050567,fast_food,Ipoh Bean Sprout Chicken
49.2286375,-123.0051671,fast_food,Kingspark
49.2286665,-123.005335,fast_food,Kasuga
49.228678,-123.0053886,fast_food,Tasty Harmony
49.2286927,-123.0054378,fast_food,House Teppan
49.2287391,-123.0054119,fast_food,Gullin Rice
49.2287753,-123.0053832,fast_food,Takeda Ya Ramen
49.228809,-123.0053618,fast_food,Ba Shu
49.2310583,-123.0061034,fast_food,Donair Delight
49.2310155,-123.0061518,fast_food,Subway
49.1883248,-122.9517415,fast_food,Subway
49.1916994,-122.9502443,fast_food,McDonald's
49.1912607,-122.9472977,fast_food,Subway
49.1911353,-122.9471654,fast_food,Opa!
49.1564728,-122.2095408,fast_food,Sarpino's Pizzeria
49.1868482,-122.8490317,fast_food,Orange Julius
49.1871184,-122.8490357,fast_food,Booster Juice
49.1868448,-122.8492283,fast_food,Cultures
49.1871177,-122.8491133,fast_food,A&W
49.1871162,-122.8492835,fast_food,Go Grill
49.1871155,-122.8493572,fast_food,Manchu Wok
49.187114,-122.849531,fast_food,Fresh Slice
49.1871697,-122.8497526,fast_food,Thai Express
49.1871291,-122.8496029,fast_food,Quesada
49.1871919,-122.849834,fast_food,KFC
49.187117,-122.8491994,fast_food,Toyama Express
49.1871146,-122.8494584,fast_food,Charleys Philly Steaks
49.1871485,-122.8496743,fast_food,Opa!
49.1869648,-122.8498822,fast_food,Steve's Poké Bar
49.186992,-122.84998,fast_food,Subway
49.186768,-122.8499392,fast_food,Burger King
49.1863136,-122.8480116,fast_food,Potato Corner
49.1886831,-122.802172,fast_food,Chipotle
49.1900326,-122.8023914,fast_food,Subway
49.2811945,-123.0125396,fast_food,Subway
49.0519086,-122.3094082,fast_food,McDonald's Drive-Thru
49.2764887,-123.1189668,fast_food,Subway
49.1924274,-123.0910446,fast_food,Triple O's
49.1775615,-123.1222328,fast_food,Subway
49.1784718,-123.121091,fast_food,Freshslice
49.1783944,-123.1210954,fast_food,Fatburger
49.1781724,-123.1211081,fast_food,Burger King
49.1687064,-123.1355348,fast_food,Freshslice Pizza
49.3277823,-123.139609,fast_food,Chipotle
49.3262061,-123.1361153,fast_food,Five Guys
49.1909246,-122.8908844,fast_food,Burger King
49.1909164,-122.8910492,fast_food,Quiznos Sub
49.1810752,-123.1354747,fast_food,James Snacks
49.2898216,-123.1332015,fast_food,Book Kyung Ban Jeoun & BK Karaoke
49.2807848,-123.124856,fast_food,The Alley
49.2605857,-122.8892018,fast_food,Panago
49.2542287,-122.893754,fast_food,Donair Ville & Cafe
49.2716748,-123.0947341,fast_food,Subway
49.2717323,-123.0948814,fast_food,Taco Del Mar
49.3237469,-123.1108931,fast_food,Quiznos
49.3233157,-123.1139545,fast_food,MOOYAH
49.0475644,-122.3443764,fast_food,Tim Hortons Drive Thru
49.2208148,-123.0656937,fast_food,Paragon Pizza
49.1808304,-123.1341778,fast_food,敘香園
49.2372522,-123.0325583,fast_food,Subway
49.2656756,-123.0044104,fast_food,Uncle Faith's Pizza
49.2637503,-123.0242122,fast_food,Subway
49.2545259,-123.0213204,fast_food,Subway
49.2833353,-123.1174336,fast_food,Opa! Of Greece
49.2308106,-123.0908083,fast_food,Little Caesars
49.2335124,-122.8624542,fast_food,McDonald's
49.2718554,-122.8764461,fast_food,Mega Donair
49.2740786,-123.1213858,fast_food,Loving Hut Express food van
49.3737497,-123.2741383,fast_food,Bay Sushi
49.3741257,-123.2747392,fast_food,Berry's
49.1709566,-123.1815568,fast_food,Church's Chicken
49.2772057,-123.1265215,fast_food,Numero Uno Pizza
49.277516,-123.1270838,fast_food,Sushi Howe
49.2801553,-123.1209311,fast_food,Pizza Garden
49.2794471,-123.1300198,fast_food,Donair King
49.0494651,-122.2597961,fast_food,Domino's Pizza
49.0496898,-122.2598023,fast_food,Subway
49.2222713,-122.9315099,fast_food,Scott Hill Pizza
49.2228162,-122.9326769,fast_food,Pizza Grill
49.2802263,-123.1307093,fast_food,Fat Burger
49.057156,-122.2740055,fast_food,Panago
49.1917192,-123.1118564,fast_food,A&W
49.2584009,-122.9555106,fast_food,Subway
49.0466415,-122.368639,fast_food,Coasters Express
49.1848537,-122.7988686,fast_food,Chan's Kitchen
49.1846812,-122.7987992,fast_food,Rodem Korea
49.1847568,-122.7988014,fast_food,Kwan Kee Noodle House
49.1847167,-122.7988016,fast_food,YL's Curry Bowl
49.1848038,-122.7988004,fast_food,Sashimi & Sushi Express
49.1047695,-122.8042283,fast_food,McDonald's
49.1985744,-122.8347803,fast_food,Pizza Nation
49.1990463,-122.8132449,fast_food,Texx Big Burger
49.2273867,-122.9997206,fast_food,McDonald's
49.1766197,-122.8015928,fast_food,Subway
49.0659014,-122.3807911,fast_food,Pizza24
49.0466441,-122.3372747,fast_food,Pizza24
49.2871644,-123.1197099,fast_food,Quiznos
49.3329498,-123.0884842,fast_food,McDonald's
49.333008,-123.0884842,fast_food,Fresh Slice
49.2311162,-123.0904218,fast_food,Tim Hortons
49.2263872,-123.0042373,fast_food,Subway
49.2260065,-123.0023569,fast_food,Chipotle
49.2257698,-122.9969729,fast_food,Booster Juice
49.2434728,-123.0621724,fast_food,KFC
49.2581579,-123.1009455,fast_food,Papa's Gourmet Pizza
49.2325226,-123.090106,fast_food,Church's Chicken
49.2792588,-123.1074257,fast_food,Uncle Fatih's Pizza
49.2793502,-123.1078358,fast_food,Freshslice
49.2791132,-123.1074224,fast_food,Something Healthy
49.2284031,-123.0908169,fast_food,Subway
49.2808303,-123.045249,fast_food,Dijo's Pizza
49.2808213,-123.0457204,fast_food,Subway
49.1913787,-122.8449032,fast_food,Subway
49.0611385,-122.3807955,fast_food,McDonald's
49.0612765,-122.380797,fast_food,Panago
49.0612017,-122.379992,fast_food,Quesada
49.0609014,-122.3803606,fast_food,Quiznos Sub
49.2195297,-123.0408142,fast_food,Little Caesars
49.2308376,-122.906467,fast_food,Pizza Pizzria
49.2230001,-122.9139689,fast_food,Subway
49.2588554,-122.7905574,fast_food,Pajo's
49.1599802,-122.401675,fast_food,Subway
49.2185492,-122.953863,fast_food,Pizza Art
49.262628,-123.0874661,fast_food,KFC
49.2723618,-123.0693179,fast_food,Rosemary Bagels
49.0910917,-122.6076471,fast_food,A&W
49.15468,-123.158142,fast_food,Coco 都可 Bubble Tea
49.2209307,-122.6001604,fast_food,Panago Pizza
49.2191699,-122.6587425,fast_food,Burger King
49.2185304,-122.6541708,fast_food,Carl's Jr.
49.2183839,-122.6534671,fast_food,Dairy Queen
49.2172304,-122.606536,fast_food,KFC
49.2171362,-122.6064892,fast_food,Taco Bell
49.2163595,-122.6049356,fast_food,Triple O's
49.2199383,-122.6019137,fast_food,Subway
49.2208584,-122.5876685,fast_food,Brownies Chicken & Seafood
49.2205909,-122.5575978,fast_food,Subway
49.1039632,-122.6505489,fast_food,Hot Spot Pizza
49.1050087,-122.6598889,fast_food,Dairy Queen
49.1051536,-122.6594585,fast_food,Robin's Donuts
49.1809803,-123.1348283,fast_food,Lai Leung
49.1262429,-123.1844405,fast_food,Ichiro Japanese Restaurant
49.1945973,-122.8457067,fast_food,KFC
49.1942617,-122.8447996,fast_food,Church's Chicken
49.2094689,-123.1164992,fast_food,Subway
49.2228133,-122.9835929,fast_food,Little Caesars
49.2280822,-122.9978351,fast_food,Subway
49.2769818,-122.8550108,fast_food,A&W
49.125729,-123.0926925,fast_food,Que Pasa
49.1343893,-122.839424,fast_food,Canadian 2 for 1 Pizza
49.1238444,-123.1842621,fast_food,The Village Burgery
49.2484965,-123.0899419,fast_food,Subway
49.2133637,-122.9197114,fast_food,Papa John's
49.2889429,-123.1390161,fast_food,Burger King
49.2060719,-123.125509,fast_food,McDonald's
49.1589744,-122.7809639,fast_food,D-Plus Pizza
49.2510662,-123.0786825,fast_food,Domino's
49.1624616,-122.7905606,fast_food,Subway
49.2896666,-122.7853435,fast_food,
49.0478696,-122.3431735,fast_food,Classic Pizza
49.04831,-122.3418519,fast_food,Great Pizza 2 for 1
49.0489231,-122.3807319,fast_food,Giddy Up Pizza -n- Curry
49.2473653,-122.89185,fast_food,
49.0954257,-122.8980932,fast_food,
49.231433,-123.0316383,fast_food,Panago Pizza
49.2789073,-123.1221767,fast_food,Uncle Fatih's Pizza
49.280548,-123.1213662,fast_food,McDonald's
49.28109,-123.1190968,fast_food,Five Guys
49.2616851,-123.0700316,fast_food,Subway
49.2831516,-123.1154178,fast_food,A&W
49.2792876,-123.1226649,fast_food,Hungry Guys
49.2725937,-123.1484867,fast_food,Flying Wedge Pizza
49.2725847,-123.1487051,fast_food,Planet Veg
49.2725886,-123.1483117,fast_food,Vera's Burger Shack
49.2725828,-123.1485578,fast_food,Al Basha
49.2727038,-123.1472939,fast_food,Siegel's Bagels
49.2837791,-122.8096883,fast_food,Sultan's Delicious Donair
49.2781282,-122.8112429,fast_food,Burger King
49.2782009,-122.8115542,fast_food,Subway
49.2723148,-123.1551667,fast_food,Nimby Burger
49.2352507,-123.1557393,fast_food,Subway
49.263878,-123.205001,fast_food,Subway
49.2546026,-123.0227873,fast_food,Mr. Pan Pizza
49.2676308,-123.0035092,fast_food,Subway
49.2630462,-123.1159688,fast_food,Chipotle
49.2676145,-123.0035285,fast_food,Subway
49.2608512,-123.1161648,fast_food,A&W
49.1124073,-122.7307639,fast_food,Foodies
49.168659,-122.5811854,fast_food,
49.2806424,-123.1312774,fast_food,Fit Camp Foods
49.2393218,-122.9635447,fast_food,Subway
49.0905017,-123.0803528,fast_food,Freshslice Pizza
49.0340836,-122.8009456,fast_food,Fatburger
49.0396209,-122.8015846,fast_food,Dairy Queen
49.0450983,-122.8008017,fast_food,Pizza Pizza
49.048996,-122.7967134,fast_food,Newton Pizza
49.0452753,-122.7772226,fast_food,Fatburger
49.0431711,-122.7802231,fast_food,Subway
49.0430859,-122.7797305,fast_food,Papa John's
49.1374505,-122.8907988,fast_food,Subway
49.2807616,-123.1248877,fast_food,Sushi Maki
49.3011514,-122.9561982,fast_food,Wally's Burger
49.048462,-122.3389052,fast_food,Burger King Drive-Through
49.0308389,-122.2927275,fast_food,Sushi Box
49.205019,-122.9098717,fast_food,Royal Hut Pizza
49.2639753,-123.1713499,fast_food,Quiznos
49.2639335,-123.1678232,fast_food,Uncle Faith's Pizza
49.2632325,-123.1364612,fast_food,Bella Pizza
49.2632444,-123.1255405,fast_food,Subway
49.2628323,-123.1032243,fast_food,Subway
49.2625523,-123.0693702,fast_food,A&W
49.2628756,-123.0695249,fast_food,Booster Juice
49.2627967,-123.0693624,fast_food,Megabite Pizza
49.238319,-123.0323183,fast_food,Super Great Pizza
49.2266714,-123.0905213,fast_food,Freshslice Pizza
49.1767688,-122.6735666,fast_food,A&W
49.2110929,-123.1407058,fast_food,Subway
49.2807931,-123.1191954,fast_food,Red Burrito
49.2833711,-123.1145504,fast_food,Peqish
49.2845542,-123.1133241,fast_food,Kita no Donburi
49.2834954,-123.1149019,fast_food,Pizza Vancouver
49.282623,-123.109344,fast_food,Meat & Bread
49.2827131,-123.1093153,fast_food,Fresh Bowl
49.2789629,-122.9155195,fast_food,Smoke's Poutinerie
49.0365027,-122.2908016,fast_food,Mary Brown's Famous Chicken & Taters!
49.0365043,-122.2907179,fast_food,freshii
49.2805051,-122.9777976,fast_food,Zeta Cafe
49.2812021,-122.9998854,fast_food,A&W
49.2813429,-123.0229786,fast_food,Hiro Sushi
49.133034,-123.0934313,fast_food,The Chopped Leaf
49.1486894,-123.1817215,fast_food,Freshii
49.1971817,-123.1755871,fast_food,Bahn Shop
49.1838653,-123.0929638,fast_food,Domino's
49.1829116,-123.0921256,fast_food,Panago Pizza
49.1838703,-123.0933981,fast_food,Subway
49.1958534,-123.1769814,fast_food,Freshii
49.195937,-123.1770558,fast_food,Pajo’s
49.1551644,-123.1238125,fast_food,Subway
49.1544601,-123.1247497,fast_food,Little Caesars
49.2896711,-123.1384396,fast_food,Yeh!
49.2896102,-123.1385336,fast_food,A&W
49.289715,-123.1383784,fast_food,Peaked Pies
49.2897561,-123.1383258,fast_food,Panago
49.1774976,-123.1201449,fast_food,McDonald's
49.1038027,-122.7250223,fast_food,McDonald's
49.1037705,-122.7286433,fast_food,A&W
49.1191003,-122.7315965,fast_food,Subway
49.1919709,-122.8241091,fast_food,A&D BBQ
49.2782532,-123.1218162,fast_food,24 Train Express Noodle House
49.2820553,-123.1335652,fast_food,La Belle Patate
49.279559,-123.1078428,fast_food,Sushi Den
49.2819445,-123.1076316,fast_food,Noodle Box
49.2816397,-123.1075252,fast_food,Tacomio
49.2838332,-123.113312,fast_food,Kyzock - House of Sushi Bowl
49.2839646,-123.1135104,fast_food,Me Crêpes
49.2840103,-123.1135799,fast_food,2001 Flavors
49.2836356,-123.1130258,fast_food,Koala Kebabs
49.2837054,-123.1131194,fast_food,Cham Mani
49.2837386,-123.1131665,fast_food,Sushi Spin Roll
49.2838178,-123.1132808,fast_food,Fresh Slice
49.0543514,-122.3585561,fast_food,Tops Pizza
49.0545294,-122.3589787,fast_food,Punjab Sweet House
49.1867038,-123.1241844,fast_food,Prata-Man Singapore Cuisine
49.1546847,-123.1257846,fast_food,Kiriri Japanese Sushi
49.1192623,-122.6708998,fast_food,Gateway Pizza
49.1996433,-122.8114213,fast_food,Panago
49.1989948,-122.8102573,fast_food,Scott's Landing Fish & Chips
49.1982423,-122.811976,fast_food,Donair Affair
49.1990405,-122.8160892,fast_food,Greek Island Pizza
49.1353879,-123.0647334,fast_food,Subway
49.1763937,-122.8887016,fast_food,Domino's Pizza
49.1763072,-122.8886974,fast_food,Subway
49.1685645,-122.8009642,fast_food,Dairy Queen
49.0504185,-122.2872244,fast_food,Saucy Momma's Pizzeria
49.2822367,-123.1092038,fast_food,Donair Dude
49.2766649,-123.1272005,fast_food,Subway
49.2823756,-123.1084859,fast_food,Subway
49.2813411,-123.1329394,fast_food,Yummy Pizza
49.2806117,-123.1318361,fast_food,Los Amigos Taqueria
49.2805693,-123.1317681,fast_food,Megabite Pizza
49.2813671,-123.1329957,fast_food,Donair Dude
49.287377,-123.1414211,fast_food,Boaguette Vietnamese Bistro
49.27789,-122.7952302,fast_food,KFC
49.2790389,-122.8285085,fast_food,Panago
49.2792178,-122.8288779,fast_food,Booster Juice
49.326995,-123.0724441,fast_food,Panago
49.1319712,-123.0926675,fast_food,Rosemary Rocksalt Bagelry
49.0610738,-122.3794809,fast_food,SuperBite Pizza
49.2493067,-122.8610589,fast_food,Austin Fish and Chips
49.1342658,-122.6905034,fast_food,D-Plus Pizza
49.303076,-123.1557257,fast_food,
49.0498247,-122.3233458,fast_food,Chopped Leaf
49.1167896,-122.6795827,fast_food,Little Caesars
49.1154625,-122.6795039,fast_food,Subway
49.1780908,-123.1222617,fast_food,Qoola
49.2775024,-123.2227417,fast_food,Spanish Banks West Concession
49.2684742,-123.1859648,fast_food,A&W
49.2598943,-122.757027,fast_food,Wendy's
49.2469453,-122.7499988,fast_food,Wendy's
49.1330239,-123.0963394,fast_food,Bubble Waffle Cafe
49.2785018,-123.1156293,fast_food,Subway
49.2785979,-123.1158033,fast_food,Russet Shack
49.0548679,-122.371284,fast_food,Barcelos Flame Grilled Chicken
49.1673671,-122.8007973,fast_food,KFC
49.1672409,-122.7995072,fast_food,Al & Jan's Fish & Chips
49.3131411,-123.0768211,fast_food,Subway
49.1046782,-122.7980848,fast_food,Quiznos
49.1923674,-122.8892801,fast_food,Triple O's
49.2668062,-123.0043359,fast_food,Fatburger
49.0412463,-122.2207816,fast_food,Booster Juice
49.0406919,-122.2201781,fast_food,Taco Del Mar
49.0406901,-122.2200785,fast_food,Subway
49.0406942,-122.2197402,fast_food,A&W
49.0412182,-122.2207062,fast_food,Donair Affair
49.2828897,-123.1230681,fast_food,Basil Box
49.2841391,-123.1142912,fast_food,Burger King
49.2955764,-123.1507467,fast_food,Second Beach Concession
49.3207939,-123.0955757,fast_food,Burger King
49.0343991,-122.3366937,fast_food,Tim Hortons
49.2713348,-122.7556241,fast_food,Dairy Queen
49.0493438,-122.297561,fast_food,Mama Michelle's Kitchen
49.2627114,-123.09985,fast_food,Poké Bar
49.136502899999996,-123.0259053,fast_food,Quiznos
49.0904611,-123.0788978,fast_food,Fatburger
49.2636427,-123.1005034,fast_food,Budgies Burritos
49.1892937,-122.8021118,fast_food,Fresh Slice
49.188908,-122.8024605,fast_food,Thai Express
49.2209188,-122.6623267,fast_food,Wendy's
49.2209888,-122.6621765,fast_food,Tim Hortons
49.280931,-123.1323047,fast_food,Pho Goodness
49.1333447,-122.322108,fast_food,Pizza 24
49.0461526,-122.3593584,fast_food,Subway
49.1292582,-122.3204815,fast_food,Wendy's
49.2692484,-123.1459879,fast_food,Pho Royal
49.268165,-123.1469026,fast_food,MacFalafel
49.2683578,-123.1595125,fast_food,McDonald's
49.1309188,-122.3195503,fast_food,Quiznos
49.1309522,-122.3193021,fast_food,Taco Del Mar
49.0385355,-122.270425,fast_food,KFC
49.2680301,-123.1545679,fast_food,Glory Juice
49.267943,-123.1492741,fast_food,Doner Kebab
49.267943,-123.1493262,fast_food,Sejuiced
49.3140173,-123.079082,fast_food,Domino's Pizza
49.0366022,-122.2921766,fast_food,McDonald's
49.0338931,-122.2943913,fast_food,Wendy's Drive-Thru
49.2621894,-123.0741944,fast_food,The Pizza King
49.1917282,-123.0840525,fast_food,Chicago Subs
49.1890975,-122.8019467,fast_food,Qoola Frozen Yogurt Bar
49.1891942,-122.8019805,fast_food,A&W
49.1892525,-122.8020476,fast_food,Curry Way
49.1893656,-122.8022609,fast_food,KFC
49.1888105,-122.8042707,fast_food,Carl's Jr.
49.1889257,-122.8021446,fast_food,Subway
49.1888927,-122.8023671,fast_food,OPA! of Greece
49.1888911,-122.8022722,fast_food,Edo
49.1889161,-122.8025338,fast_food,Bourbon Street Grill
49.1893314,-122.802172,fast_food,Kung Pao Wok
49.1893916,-122.8023522,fast_food,VINA
49.1893943,-122.8024804,fast_food,Dairy Queen/Orange Julius
49.189357,-122.8025882,fast_food,Easy Grill
49.1889433,-122.8026274,fast_food,New York Fries
49.0892837,-123.0800697,fast_food,Quiznos
49.0896812,-123.0804882,fast_food,Booster Juice
49.1247081,-123.1825375,fast_food,Win Win Chick-N
49.2811705,-123.1204114,fast_food,Burger King
49.2332549,-123.0347948,fast_food,Papa John's
49.0585166,-122.3794952,fast_food,Booster Juice
49.0586766,-122.3804894,fast_food,Subway
49.0586952,-122.3804395,fast_food,Papa Greek
49.2044232,-122.90607,fast_food,Subway
49.2781506,-122.9102568,fast_food,Uncle Fatih's
49.1772748,-122.7895305,fast_food,Perfect Pizza
49.2847649,-123.1210612,fast_food,McDonald's
49.2624776,-123.0702461,fast_food,Uncle Fatih's
49.2617463,-123.0696025,fast_food,McDonald's
49.2616597,-123.0696079,fast_food,Quiznos
49.2615906,-123.0696065,fast_food,Fresh Slice
49.2694887,-123.0694438,fast_food,Red Burrito
49.2673932,-123.0694555,fast_food,Fire Pizza
49.267464,-123.0694548,fast_food,4 Brothers' Pizza
49.335939,-123.0390148,fast_food,Papa John's
49.2488211,-122.8624127,fast_food,Subway
49.2241741,-122.9417202,fast_food,
49.2271464,-122.8418011,fast_food,Subway
49.230899,-123.0907977,fast_food,Dairy Queen
49.2252537,-123.0039474,fast_food,Pizza Garden
49.2696735,-123.1459612,fast_food,Subway
49.0385857,-122.2705368,fast_food,Fatburger Express
49.2418492,-122.7614665,fast_food,Subway
49.2568861,-123.121518,fast_food,Hachibei 八兵衛
49.277457,-123.1259686,fast_food,Grade 'A' Cafe
49.2774975,-123.1259158,fast_food,Mr. Greek
49.2778308,-123.1254331,fast_food,Donair Dude
49.278957,-123.1081511,fast_food,TAKO
49.2794353,-123.1069567,fast_food,Odo Sushi
49.1326073,-122.3396821,fast_food,Subway
49.1335522,-122.337772,fast_food,Pizza 64
49.234167,-122.8626459,fast_food,Fatburger
49.2824302,-122.8003918,fast_food,Church's Chicken
49.2640478,-123.1142162,fast_food,Uncle Fatihs Pizza
49.263801,-123.1145916,fast_food,Wendy's
49.2313362,-122.8930883,fast_food,Quiznos
49.2313075,-122.893213,fast_food,panago
49.1909939,-122.9498358,fast_food,Quiznos
49.2798348,-122.9661141,fast_food,Subway
49.2792808,-122.9172945,fast_food,Triple O White Spot
49.156596,-122.913408,fast_food,Apollo Pizza + Pasta
49.1557887,-122.9126704,fast_food,Subway
49.226217,-123.065504,fast_food,Subway
49.2625141,-123.1527767,fast_food,Subway
49.3066775,-123.0365159,fast_food,McDonald's
49.1339983,-122.3272174,fast_food,Lighthouse Fresh & Tasty
49.1338651,-122.3248304,fast_food,Panago
49.2182528,-122.6527159,fast_food,Subway
49.2860028,-123.1124564,fast_food,Chronic Tacos
49.2880327,-123.1236171,fast_food,A&W
49.2560819,-123.1153942,fast_food,Subway
49.2265992,-122.8930617,fast_food,Subway
49.197546,-123.178164,fast_food,Pizza Hut Express
49.197646,-123.178346,fast_food,Hanami
49.197773,-123.178357,fast_food,Famous Famiglia
49.197857,-123.178461,fast_food,Subway
49.197921,-123.178503,fast_food,A&W
49.1977105,-123.1745352,fast_food,Burger King
49.1897057,-122.8478633,fast_food,Uncle Fatih’s Pizza
49.1853073,-122.8004145,fast_food,Canadian 2 for 1 Pizza
49.2664195,-123.249893,fast_food,Pi R Squared
49.2669332,-123.2501267,fast_food,Honour Roll
49.214159,-122.9890244,fast_food,Subway
49.266267,-123.2473433,fast_food,Uncle Fatih's Pizza
49.2012077,-122.9132677,fast_food,A&W
49.1822909,-122.8443605,fast_food,A&W
49.1829337,-122.8443125,fast_food,Freshslice Pizza
49.2541445,-123.1012783,fast_food,Church's Chicken
49.1588797,-122.7817808,fast_food,Subway
49.1182418,-122.8461917,fast_food,McDonald's
49.0511989,-122.3235908,fast_food,A&W
49.160697,-122.667293,fast_food,Subway
49.1624742,-122.6564355,fast_food,A&W
49.2801341,-123.118169,fast_food,Falafel King
49.2794999,-123.1172314,fast_food,Hubbub
49.2802404,-123.1183332,fast_food,Curry Fusion
49.2801999,-123.1182707,fast_food,Japadog
49.2801622,-123.1182125,fast_food,Viet Sub
49.2798631,-123.1177806,fast_food,Chopped Leaf
49.1487386,-123.1358977,fast_food,Dairy Queen
49.3099424,-123.0822109,fast_food,Dex Burgerbar
49.2873965,-123.1143665,fast_food,McDonald's
49.2890568,-123.1146229,fast_food,Subway
49.3007699,-123.1313555,fast_food,
49.2842402,-123.1175601,fast_food,halal arabic food stand
49.2831011,-123.1171034,fast_food,Mr Shawarma
49.2852994,-123.1201643,fast_food,Mr Shawarma
49.2793561,-123.1234139,fast_food,Mean Poutine
49.2792751,-123.1233421,fast_food,Megabite
49.2585993,-123.044779,fast_food,Fresh Slice Pizza
49.257986700000004,-123.0449264,fast_food,Subway
49.2848635,-123.124863,fast_food,Jugo Juice
49.119491,-122.6652549,fast_food,Pita Pit
49.1547908,-123.1257818,fast_food,Round Table Pizza
49.0517339,-122.3153309,fast_food,California Tacos to Go
49.0758884,-122.6698849,fast_food,Subway
49.0764542,-122.6707002,fast_food,McDonald's
49.0902235,-122.607215,fast_food,Quiznos
49.1034726,-122.4921488,fast_food,Holy Falafel & Shawarma House
49.198074,-122.812044,fast_food,Subway
49.1776035,-122.6721562,fast_food,Wendy's
49.1413446,-122.8655179,fast_food,
49.2816322,-123.1329448,fast_food,Disco Cheetah
49.2812333,-123.1323093,fast_food,KFC
49.2831781,-123.1044747,fast_food,Vera's Burger Shack
49.2318607,-123.0293811,fast_food,Subway
49.1921329,-123.0857202,fast_food,Subway
49.1917185,-123.1098172,fast_food,Quiznos
49.2805438,-122.7929451,fast_food,Quiznos
49.2815417,-123.1211798,fast_food,Chipotle
49.285126,-123.0640036,fast_food,McDonald's
49.2791142,-123.1158255,fast_food,Salad Loop
49.0475189,-122.3368772,fast_food,Veerji Fish 'n' Grill
49.2183451,-123.0773794,fast_food,Subway
49.0447793,-122.3373096,fast_food,Gold Pan Pizza & Wings
49.038444,-122.2745518,fast_food,Popeyes
49.2816572,-123.1205978,fast_food,Freshslice Pizza
49.2795971,-123.1174151,fast_food,Orange Julius
49.2796191,-123.117481,fast_food,A&W
49.2817133,-123.1206758,fast_food,A&W
49.1550148,-122.911601,fast_food,Delice
49.2774536,-123.1313375,fast_food,Daikichi Sushi
49.277676,-123.1310303,fast_food,Pho
49.2777387,-123.1309321,fast_food,Sushi Coen
49.0149372,-123.0402101,fast_food,Centennial Beach Cafe
49.2093486,-123.1167129,fast_food,A&W
49.1980528,-122.978715,fast_food,Subway
49.2765795,-122.7965015,fast_food,A&W
49.259913,-123.1013173,fast_food,Subway
49.2577431,-123.1014053,fast_food,Bellagio's Gelato
49.2483723,-123.1012782,fast_food,Hawker's Delight
49.2451512,-123.1015128,fast_food,McDonald's
49.2787971,-123.1234582,fast_food,A&W
49.0519086,-122.3094419,fast_food,McDonald's Drive-Thru
49.2803306,-123.1308594,fast_food,Best Bite Donair
49.284191,-123.1159168,fast_food,Subway
49.2396475,-122.9673974,fast_food,
49.0562744,-122.8005676,fast_food,Subway
49.0557436,-122.8006779,fast_food,Panago
49.2197762,-122.6018575,fast_food,Taco Fan
49.1267991,-122.6235305,fast_food,Subway
49.1044759,-122.6560201,fast_food,Donair Hut
49.2087938,-122.9150854,fast_food,Ultimate Pizza
49.2007348,-122.9812202,fast_food,McDonald's
49.0659286,-122.3776546,fast_food,Super Star Veggie Pizza
49.1967375,-123.139713,fast_food,Hugo's Churros
49.1027065,-122.6449963,fast_food,Subway
49.2809841,-123.0574196,fast_food,Church's Chicken
49.1139699,-122.6702933,fast_food,Red Wings
49.1139708,-122.6702357,fast_food,Panago
49.2740753,-123.1220882,fast_food,Freshslice Pizza
49.1336842,-122.8899902,fast_food,Westin Pizza
49.1326408,-123.0911561,fast_food,Freshslice Pizza
49.2811916,-122.7958586,fast_food,Papa John's
49.1965921,-123.1386476,fast_food,Fresh Squeezed
49.196668,-123.1399053,fast_food,hula
49.1967012,-123.1398557,fast_food,Chachi's
49.1967335,-123.1398286,fast_food,dirtbelly
49.2801689,-122.9665687,fast_food,Dairy Queen
49.2793149,-123.0987588,fast_food,Kent's Kitchen
49.2860715,-123.1198755,fast_food,The Bagel Stop
49.2784482,-123.125521,fast_food,Unwind
49.2508148,-123.1680215,fast_food,Ridge Garden
49.2778413,-122.79513,fast_food,Taco Bell
49.2870439,-123.1197864,fast_food,Fujiya take out
49.2186099,-122.9567528,fast_food,Subway
49.226921,-123.1288066,fast_food,Subway
49.2668547,-123.0092836,fast_food,Church's Chicken
49.0082451,-123.1302634,fast_food,Ali Baba Pizza
49.0082833,-123.1301965,fast_food,Frankie's Gourmet Hot Dogs
49.0081091,-123.1302736,fast_food,Salsa
49.0081843,-123.1303454,fast_food,Skyway Sandwiches & Salad
49.0081311,-123.1304165,fast_food,Wok n' Roll
49.0085395,-123.1298521,fast_food,iSalad
49.2628059,-122.780611,fast_food,Omega Pizza & Wings
49.2776544,-123.125186,fast_food,Domino's
49.2257641,-122.9978351,fast_food,Dairy Queen
49.2635775,-122.8870037,fast_food,KFC
49.2538589,-123.0613739,fast_food,
49.1880039,-122.8465109,fast_food,D-Plus Pizza
49.0212569,-122.8051581,fast_food,Dock's Fish & Chips
49.2801635,-122.7997254,fast_food,Fresh Slice
49.1904556,-122.9503879,fast_food,Wok Box
49.1903259,-122.9491728,fast_food,A&W
49.191552,-122.9477768,fast_food,Naan Bites
49.3066055,-123.0087435,fast_food,Subway
49.0244993,-123.070243,fast_food,Freshslice
49.2829336,-123.1082494,fast_food,Hiro Sushi
49.2805664,-123.1062443,fast_food,Congee Noodle Delight
49.2806971,-123.1249776,fast_food,Hooked Poke Bar
49.2807276,-123.1249285,fast_food,Pokérrito
49.2808062,-123.1248205,fast_food,Trish Juice
49.2854427,-123.1172593,fast_food,Twin Leaf
49.284215,-123.112463,fast_food,Pholicious
49.2834377,-123.1144759,fast_food,Baghdad Cafe
49.2772847,-123.1276861,fast_food,Pizza Guys
49.2621487,-123.0447635,fast_food,Mr. Sub
49.3053018,-123.0316749,fast_food,A&W
49.2283742,-122.8481876,fast_food,Wendy's
49.2655577,-123.1199868,fast_food,Subway
49.2779076,-123.1277317,fast_food,Subway
49.274141,-123.1200688,fast_food,Fresh Bowl
49.2555159,-123.1153245,fast_food,Flying Wedge Pizza
49.0425822,-122.7795333,fast_food,Five Guys
49.2233012,-122.671355,fast_food,Tim Hortons
49.2229088,-122.6709902,fast_food,Opa! Souvlaki
49.2216335,-122.6731896,fast_food,Vera's Burger Shack
49.1143031,-122.6752938,fast_food,Freshslice Pizza
49.1142429,-122.6753681,fast_food,A&W
49.1143703,-122.675676,fast_food,Opa! Souvlaki
49.1142463,-122.6756173,fast_food,Taco Time
49.1144699,-122.6752018,fast_food,Orange Julius
49.1594153,-122.668815,fast_food,Triple-O's
49.0548414,-122.317129,fast_food,Ricardo's Pizza
49.0549034,-122.3191707,fast_food,Subway
49.054702,-122.3255096,fast_food,PIZZA JUNCTION & Snacks
49.2914507,-123.1351281,fast_food,Donair Town
49.2336486,-123.0361183,fast_food,Domino's
49.2111569,-123.1408597,fast_food,Panago Pizza
49.1872508,-123.1312392,fast_food,Big G Large Fried Chicken
49.267402,-123.2495964,fast_food,Subway
49.2673302,-123.2497546,fast_food,Booster Juice
49.2780845,-122.9120717,fast_food,Subway
49.2777723,-122.9114568,fast_food,Quesada
49.2626605,-123.091518,fast_food,Domino's
49.0759261,-122.6701537,fast_food,Domino's
49.1025718,-122.6463802,fast_food,Papa John's
49.1139702,-122.6699507,fast_food,Dairy Queen
49.1793429,-123.0695964,fast_food,Quiznos
49.1144032,-122.6679644,fast_food,Quiznos
49.3360146,-123.040592,fast_food,McDonald's
49.337224,-123.0393895,fast_food,Dairy Queen
49.337148,-123.0393919,fast_food,Little Caesars
49.3057451,-123.0333659,fast_food,Wendy's
49.2661695,-123.0694931,fast_food,La Pache Pizza
49.2635006,-122.88703,fast_food,Subway
49.1970633,-123.176727,fast_food,Skyway Sandwiches and Salads
49.1971159,-123.1767861,fast_food,Orange Julius
49.2202101,-122.6559304,fast_food,Fatburger
49.235694,-122.8648711,fast_food,Dairy Queen
49.0403191,-122.2693197,fast_food,Jugo Juice
49.0400443,-122.2690856,fast_food,Sasha Sushi
49.0399745,-122.2690161,fast_food,Little Caesars
49.2837533,-123.1120999,fast_food,Waffle Frenzy
49.2839142,-123.1123573,fast_food,Subway
49.1306397,-122.3180023,fast_food,Booster Juice
49.1320933,-122.3220594,fast_food,Little Caesars
49.1326939,-122.3208048,fast_food,A&W
49.1327007,-122.3193809,fast_food,Subway
49.2787163,-123.1289359,fast_food,Mucho Burrito
49.1044656,-122.6598376,fast_food,Subway
49.2796822,-123.1265354,fast_food,Subway
49.1114094,-122.6753063,fast_food,McDonald's
49.2808428,-123.0041309,fast_food,Pizza Hut
49.0545386,-122.3707411,fast_food,Pizza 64
49.3359336,-123.0715518,fast_food,Subway
49.1061885,-122.655168,fast_food,Westcoast Pizza
49.1187952,-122.8914653,fast_food,Papa John's
49.0364574,-122.3120906,fast_food,Artichokes
49.1908367,-122.9496788,fast_food,Taco Del Mar
49.2961888,-122.8035842,fast_food,Subway
49.0372607,-122.2707686,fast_food,Subway
49.280541,-123.1074094,fast_food,Einstein Wrap House
49.1052902,-122.7987092,fast_food,Chopsticks on Pho
49.1052857,-122.79856,fast_food,rasoee
49.0899906,-123.080656,fast_food,Dairy Queen
49.1039351,-122.7292839,fast_food,Salty's
49.1039465,-122.7305423,fast_food,KFC
49.1034796,-122.7321762,fast_food,Pizza Hut Delivery
49.1036626,-122.7326073,fast_food,Subway
49.1043183,-122.734523,fast_food,De Dutch
49.1391411,-122.8431541,fast_food,Pho Newton
49.2796131,-123.1239353,fast_food,Babylon Cafe
49.2747568,-123.1002559,fast_food,Subway
49.2031768,-122.8792546,fast_food,Subway
49.2257362,-122.9973998,fast_food,Uncle Tetsu
49.2255679,-122.9979729,fast_food,Mrs. Fields Prezelmaker
49.0461321,-122.3365217,fast_food,D-Hut Pizza & More
49.2629671,-123.0988218,fast_food,Pizza Pizza
49.0431439,-122.2231024,fast_food,Triple O's
49.0177554,-122.7936308,fast_food,Moby Dick
49.3273947,-123.072432,fast_food,McDonald's
49.1201645,-122.8449823,fast_food,Subway
49.2812597,-123.0537245,fast_food,FreshSlice
49.1485331,-123.1825159,fast_food,A&W
49.2803398,-123.1072667,fast_food,Abdul's BBQ
49.2683055,-123.1723907,fast_food,Yak & Yeti Bistro
49.2636878,-123.2113535,fast_food,Everyday Sushi
49.2687846,-123.1852151,fast_food,The Cove Pub
49.2514267,-123.1272648,fast_food,Best Neighbors
49.2790841,-122.7942619,fast_food,Bubble World
49.2367894,-122.8529883,fast_food,Quiznos Club
49.2366392,-122.8529962,fast_food,Taco Del Mar
49.2830143,-123.1091786,fast_food,Meatball Kitchen
49.163569,-122.406059,fast_food,Triple-O's
49.1021957,-122.4862924,fast_food,Industrial Park Sandwich Works
49.2792636,-123.1078464,fast_food,Subway
49.2772949,-123.1266675,fast_food,Fritz's European Fry House
49.2776678,-123.1266852,fast_food,Freshslice Pizza
49.2713215,-122.755135,fast_food,Subway
49.2717188,-122.7571278,fast_food,Pappa Leo's Pizza
49.2718087,-122.7556464,fast_food,Little Caesars
49.2718577,-122.7558811,fast_food,John's Chicken
49.2800579,-123.1309152,fast_food,Pokébar
49.1209902,-122.663999,fast_food,Popeyes
49.1212328,-122.6617515,fast_food,McDonald's
49.2122195,-122.9189089,fast_food,McDonald's
49.2124536,-122.919196,fast_food,Pizza Pizza
49.2154924,-122.9230443,fast_food,Granada 2 for 1 Pizza Ltd
49.2151421,-122.9225823,fast_food,Mediterranean Donair House
49.2122877,-122.9190262,fast_food,Subway
49.1557928,-122.9128469,fast_food,Little Caesars
49.1916628,-122.82362,fast_food,Freshslice Pizza
49.2650869,-122.776261,fast_food,McDonald's
49.2667209,-122.7778055,fast_food,Pizza64
49.0522409,-122.3253254,fast_food,Domino's Pizza
49.0592295,-122.4922766,fast_food,strEATS Aldergrove
49.0412018,-122.2206368,fast_food,freshii
49.2760108,-123.1219029,fast_food,Yopo
49.2753352,-123.1237311,fast_food,Menchie's Frozen Yogourt
49.2798076,-123.1267669,fast_food,Balila
49.2761708,-123.1249057,fast_food,Chancho Tortilleria
49.263802,-123.1405911,fast_food,Subway
49.1203766,-122.8923201,fast_food,Subway
49.1206338,-122.8917794,fast_food,Little Caesars
49.0308509,-123.0691854,fast_food,Dairy Queen
49.0899836,-123.0829956,fast_food,Domino's Pizza
49.1904248,-122.8448935,fast_food,Burger King
49.2192667,-123.0408347,fast_food,A&W
49.2188696,-123.0401823,fast_food,Subway
49.1188015,-122.8237596,fast_food,Popeyes
49.1187754,-122.8241543,fast_food,Subway
49.1187811,-122.8245367,fast_food,Triple O's
49.1337792,-122.8411903,fast_food,Subway
49.1337664,-122.8393167,fast_food,Chicken World
49.138246,-122.8450644,fast_food,Burger King
49.3163612,-122.9706521,fast_food,Little Caesars
49.3164521,-122.969311,fast_food,A&W
49.3162935,-122.9711673,fast_food,Subway
49.2640388,-123.178066,fast_food,McDonald's
49.2666817,-123.2425065,fast_food,McDonald's
49.0251321,-122.2661425,fast_food,Tim Hortons
49.0249879,-122.2661425,fast_food,Wendy's
49.1498513,-122.2556226,fast_food,Subway
49.2637096,-123.1545909,fast_food,Evelyn's Coffee and Grill
49.2626769,-123.0904448,fast_food,Subway
49.0591051,-122.4938845,fast_food,McDonald's
49.0451912,-122.2930634,fast_food,Delux Pizza & Donair
49.2804593,-123.1219022,fast_food,Subway
49.26262,-122.8383183,fast_food,A&W
49.2631825,-122.8402209,fast_food,Subway
49.2630737,-122.8402128,fast_food,Pizza One
49.1036721,-122.492054,fast_food,Subway
49.048636,-122.2926136,fast_food,Subway
49.1989332,-122.81025700000001,fast_food,Church's Chicken
49.1852228,-122.8005841,fast_food,Subway
49.1245208,-122.7021725,fast_food,Papa Murphy's
49.0169752,-122.7911321,fast_food,Beach Break Pizza
49.0174182,-122.7925272,fast_food,Baja Cantina
49.0173592,-122.7923408,fast_food,The Whales Tail
49.0176988,-122.7934364,fast_food,Coney Island Fish and Chips
49.0174598,-122.7926516,fast_food,Fishboat
